[
    {
        "type": "settai",
        "name": "坂田",
        "address": "安来市安来町1906-2",
        "tell": "0854-23-0446",
        "lng": 133.255687,
        "lat": 35.429187,
        "url": null,
        "etc": ""
    },
    {
        "type": "settai",
        "name": "和暖",
        "address": "松江市伊勢宮町535-52",
        "tell": "0852-22-2020",
        "lng": 133.059674,
        "lat": 35.465635,
        "url": null,
        "etc": ""
    },
    {
        "type": "settai",
        "name": "スナック良",
        "address": "松江市玉造町玉造500-2",
        "tell": "0852-62-1477",
        "lng": null,
        "lat": null,
        "url": null,
        "etc": "error"
    },
    {
        "type": "settai",
        "name": "スナック    ズー",
        "address": "松江市伊勢宮町514アクアビル1F",
        "tell": "0852-24-4054",
        "lng": 133.060398,
        "lat": 35.465435,
        "url": null,
        "etc": ""
    },
    {
        "type": "settai",
        "name": "シルクロード",
        "address": "松江市末次本町49",
        "tell": "0852-23-4690",
        "lng": 133.055615,
        "lat": 35.469373,
        "url": null,
        "etc": ""
    },
    {
        "type": "settai",
        "name": "らうんじ    炎",
        "address": "松江市東本町1-50",
        "tell": "0852-21-1739",
        "lng": 133.05624,
        "lat": 35.469404,
        "url": null,
        "etc": ""
    },
    {
        "type": "settai",
        "name": "FIVE",
        "address": "松江市伊勢宮町525-6 MILD BLD 1F",
        "tell": "0852-21-8088",
        "lng": 133.060679,
        "lat": 35.465999,
        "url": null,
        "etc": ""
    },
    {
        "type": "settai",
        "name": "Hachi",
        "address": "松江市伊勢宮町530    伊勢宮セントラルビル1F",
        "tell": "0852-28-0882",
        "lng": 133.060115,
        "lat": 35.465963,
        "url": null,
        "etc": ""
    },
    {
        "type": "settai",
        "name": "ALLURE",
        "address": "松江市伊勢宮町516-2    ハイカラビル1F",
        "tell": "0852-61-8028",
        "lng": 133.060746,
        "lat": 35.46546,
        "url": null,
        "etc": ""
    },
    {
        "type": "settai",
        "name": "無料案内所",
        "address": "松江市伊勢宮町528    DANDANビル1F",
        "tell": null,
        "lng": 133.060504,
        "lat": 35.465729,
        "url": null,
        "etc": ""
    },
    {
        "type": "settai",
        "name": "知得人",
        "address": "松江市東本町3丁目47番地    OXYビル2F",
        "tell": "0852-27-5448",
        "lng": 133.058471,
        "lat": 35.469176,
        "url": null,
        "etc": ""
    },
    {
        "type": "settai",
        "name": "ラウンジ沙羅",
        "address": "松江市東本町1-6",
        "tell": "0852-24-9877",
        "lng": 133.056185,
        "lat": 35.468701,
        "url": null,
        "etc": ""
    },
    {
        "type": "settai",
        "name": "スナック    ファン倶楽部",
        "address": "松江市朝日町469-2    駅南ビル5F",
        "tell": "0852-27-7657",
        "lng": 133.06326,
        "lat": 35.463207,
        "url": null,
        "etc": ""
    },
    {
        "type": "settai",
        "name": "海美    あま",
        "address": "松江市東本町3-47",
        "tell": "0852-25-6151",
        "lng": 133.058471,
        "lat": 35.469176,
        "url": null,
        "etc": ""
    },
    {
        "type": "settai",
        "name": "ボルドー",
        "address": "松江市伊勢宮町537-7 クイーンズビル1F",
        "tell": "0852-28-1314",
        "lng": 133.060154,
        "lat": 35.46636,
        "url": null,
        "etc": ""
    },
    {
        "type": "settai",
        "name": "ナイトラウンジ    ほへと",
        "address": "松江市東本町四丁目150-1",
        "tell": "0852-27-0900",
        "lng": 133.059551,
        "lat": 35.470107,
        "url": null,
        "etc": ""
    },
    {
        "type": "settai",
        "name": "フォルテシモ",
        "address": "松江市伊勢宮町501-12    スタービル2階",
        "tell": "080-2904-2555",
        "lng": 133.059921,
        "lat": 35.465341,
        "url": null,
        "etc": ""
    },
    {
        "type": "settai",
        "name": "スナック    ドレミ",
        "address": "松江市寺町179    ユーアイビル1F",
        "tell": "0852-27-8878",
        "lng": 133.058949,
        "lat": 35.465152,
        "url": null,
        "etc": ""
    },
    {
        "type": "settai",
        "name": "スナックよりみち",
        "address": "雲南市大東町大東2402-5",
        "tell": "0854-43-2535",
        "lng": 132.967319,
        "lat": 35.323208,
        "url": null,
        "etc": ""
    },
    {
        "type": "settai",
        "name": "ラウンジ遊",
        "address": "雲南市三刀屋町三刀屋20",
        "tell": "0854-45-5900",
        "lng": 132.883418,
        "lat": 35.295829,
        "url": null,
        "etc": ""
    },
    {
        "type": "settai",
        "name": "スナック・ベンチ",
        "address": "雲南市加茂町加茂中873-7",
        "tell": "0854-49-7887",
        "lng": 132.904637,
        "lat": 35.34687,
        "url": null,
        "etc": ""
    },
    {
        "type": "settai",
        "name": "スナック篝",
        "address": "仁多郡奥出雲町三成709-3",
        "tell": "0854-54-1718",
        "lng": 133.003626,
        "lat": 35.201554,
        "url": null,
        "etc": ""
    },
    {
        "type": "settai",
        "name": "スナック凜",
        "address": "出雲市今市町1291-2きたむらビル1F",
        "tell": "0853-23-8140",
        "lng": 132.758219,
        "lat": 35.363052,
        "url": null,
        "etc": ""
    },
    {
        "type": "settai",
        "name": "まごころ",
        "address": "出雲市今市町1309",
        "tell": "0853-25-1562",
        "lng": 132.75722,
        "lat": 35.362571,
        "url": null,
        "etc": ""
    },
    {
        "type": "settai",
        "name": "Eve",
        "address": "出雲市今市町1357    スズキビル3F",
        "tell": "0853-23-1230",
        "lng": 132.757536,
        "lat": 35.363138,
        "url": null,
        "etc": ""
    },
    {
        "type": "settai",
        "name": "アゥル",
        "address": "出雲市今市町929-2    キタムラビル1F",
        "tell": "0853-23-8139",
        "lng": 132.756956,
        "lat": 35.362246,
        "url": null,
        "etc": ""
    },
    {
        "type": "settai",
        "name": "ラウンジスマイル",
        "address": "出雲市塩冶有原町5-47",
        "tell": "0853-25-2528",
        "lng": 132.746968,
        "lat": 35.357702,
        "url": null,
        "etc": ""
    },
    {
        "type": "settai",
        "name": "スナック＆ミュージックステーション    スターキング",
        "address": "出雲市平田町2273-13",
        "tell": "0853-63-7068",
        "lng": 132.824624,
        "lat": 35.433548,
        "url": null,
        "etc": ""
    },
    {
        "type": "settai",
        "name": "(有)会館吾妻",
        "address": "江津市嘉久志町2426-18",
        "tell": "0855-52-2358",
        "lng": 132.207418,
        "lat": 35.003729,
        "url": null,
        "etc": ""
    },
    {
        "type": "settai",
        "name": "ティールーム 優花",
        "address": "江津市都野津町2342-1",
        "tell": "0855-53-4811",
        "lng": 132.187548,
        "lat": 34.984395,
        "url": null,
        "etc": ""
    },
    {
        "type": "settai",
        "name": "クラブ久子",
        "address": "江津市江津町1188-7",
        "tell": "0855-52-2854",
        "lng": 132.222347,
        "lat": 35.013858,
        "url": null,
        "etc": ""
    },
    {
        "type": "settai",
        "name": "福沢屋旅館",
        "address": "邑智郡邑南町矢上45番地",
        "tell": "0855-95-0018",
        "lng": 132.444603,
        "lat": 34.889447,
        "url": null,
        "etc": ""
    },
    {
        "type": "settai",
        "name": "ラ・ボヌール",
        "address": "浜田市浅井町102-21    銀天街ビル1階",
        "tell": "0855-22-8188",
        "lng": 132.091796,
        "lat": 34.902832,
        "url": null,
        "etc": ""
    },
    {
        "type": "settai",
        "name": "スナック    チャールストン",
        "address": "浜田市蛭子町32",
        "tell": "0855-22-4068",
        "lng": 132.075848,
        "lat": 34.895705,
        "url": null,
        "etc": ""
    },
    {
        "type": "settai",
        "name": "スナック    メイツ",
        "address": "益田市駅前町23-9",
        "tell": "0856-24-0398",
        "lng": 131.837787,
        "lat": 34.677283,
        "url": null,
        "etc": ""
    },
    {
        "type": "settai",
        "name": "キャバレー赤玉",
        "address": "益田市駅前町23番6号",
        "tell": "0856-22-0335",
        "lng": 131.837737,
        "lat": 34.677186,
        "url": null,
        "etc": ""
    },
    {
        "type": "kyakuseki",
        "name": "星の砂",
        "address": "安来市安来町1949あたごビル1F3-3",
        "tell": "0854-23-2525",
        "lng": 133.256456,
        "lat": 35.429059,
        "url": null,
        "etc": ""
    },
    {
        "type": "kyakuseki",
        "name": "炉端かば安来店",
        "address": "安来市安来町2093-4",
        "tell": "0854-22-2500",
        "lng": 133.260036,
        "lat": 35.428276,
        "url": null,
        "etc": ""
    },
    {
        "type": "kyakuseki",
        "name": "ホテルひさご家",
        "address": "安来市安来町2403",
        "tell": "0854-22-2127",
        "lng": 133.259506,
        "lat": 35.429112,
        "url": null,
        "etc": ""
    },
    {
        "type": "kyakuseki",
        "name": "ほっかほっか亭安来神田店",
        "address": "安来市安来町753-1",
        "tell": "0854-22-3003",
        "lng": 133.246324,
        "lat": 35.425243,
        "url": null,
        "etc": ""
    },
    {
        "type": "kyakuseki",
        "name": "竹葉",
        "address": "安来市古川町438",
        "tell": "0854-28-6231",
        "lng": 133.195126,
        "lat": 35.380318,
        "url": null,
        "etc": ""
    },
    {
        "type": "kyakuseki",
        "name": "お食事処    藤芳",
        "address": "安来市古川町442-1",
        "tell": "0854-28-7473",
        "lng": 133.195367,
        "lat": 35.379893,
        "url": null,
        "etc": ""
    },
    {
        "type": "kyakuseki",
        "name": "夢ランドしらさぎ",
        "address": "安来市古川町835",
        "tell": "0854-28-6300",
        "lng": 133.196629,
        "lat": 35.375407,
        "url": null,
        "etc": ""
    },
    {
        "type": "kyakuseki",
        "name": "比田温泉    湯田山荘",
        "address": "安来市広瀬町東比田1373",
        "tell": "0854-34-0240",
        "lng": 133.162883,
        "lat": 35.250311,
        "url": null,
        "etc": ""
    },
    {
        "type": "kyakuseki",
        "name": "LOACH",
        "address": "安来市黒井田町327-5",
        "tell": "0854-22-4334",
        "lng": 133.264652,
        "lat": 35.432434,
        "url": null,
        "etc": ""
    },
    {
        "type": "kyakuseki",
        "name": "すき家    9号安来店",
        "address": "安来市黒井田町452-17",
        "tell": "050-3772-1567",
        "lng": 133.26335,
        "lat": 35.428531,
        "url": null,
        "etc": ""
    },
    {
        "type": "kyakuseki",
        "name": "中海の郷",
        "address": "安来市中海町128-1",
        "tell": "0854-23-2501",
        "lng": null,
        "lat": null,
        "url": null,
        "etc": "error"
    },
    {
        "type": "kyakuseki",
        "name": "グルメ＆コーヒー舶来屋",
        "address": "安来市島田町427-1",
        "tell": "0854-22-3847",
        "lng": 133.291821,
        "lat": 35.415411,
        "url": null,
        "etc": ""
    },
    {
        "type": "kyakuseki",
        "name": "タイムトンネルⅢ",
        "address": "安来市南十神2番地",
        "tell": "0854-23-2274",
        "lng": null,
        "lat": null,
        "url": null,
        "etc": "error"
    },
    {
        "type": "kyakuseki",
        "name": "別邸母里",
        "address": "安来市伯太町東母里468",
        "tell": "0854-26-4131",
        "lng": 133.276885,
        "lat": 35.353228,
        "url": null,
        "etc": ""
    },
    {
        "type": "kyakuseki",
        "name": "五箇創生館    喫茶    木かげ",
        "address": "隠岐郡隠岐の島町郡615番1",
        "tell": "08512-5-2845",
        "lng": 133.249564,
        "lat": 36.280818,
        "url": null,
        "etc": ""
    },
    {
        "type": "kyakuseki",
        "name": "月あかりカフェ",
        "address": "隠岐郡隠岐の島町西町八尾の三45",
        "tell": "090-3880-6877",
        "lng": 133.329377,
        "lat": 36.205747,
        "url": null,
        "etc": ""
    },
    {
        "type": "kyakuseki",
        "name": "フィッシャーマンズワーフ隠岐合同会社",
        "address": "隠岐郡隠岐の島町中町目貫の四､58-1",
        "tell": "08512-2-6600",
        "lng": 133.335071,
        "lat": 36.204095,
        "url": null,
        "etc": ""
    },
    {
        "type": "kyakuseki",
        "name": "お泊り処    なかむら",
        "address": "隠岐郡海士町大字海士1456-5",
        "tell": "08514-2-1717",
        "lng": 133.095222,
        "lat": 36.094835,
        "url": null,
        "etc": ""
    },
    {
        "type": "kyakuseki",
        "name": "ホテル知夫の里",
        "address": "隠岐郡知夫村1242-1",
        "tell": "08514-8-2500",
        "lng": 133.03815,
        "lat": 36.003963,
        "url": null,
        "etc": ""
    },
    {
        "type": "kyakuseki",
        "name": "居酒屋    もみじ",
        "address": "雲南市加茂町加茂中870-1",
        "tell": "0854-49-8989",
        "lng": 132.904123,
        "lat": 35.346514,
        "url": null,
        "etc": ""
    },
    {
        "type": "kyakuseki",
        "name": "ドライブイン加茂",
        "address": "雲南市加茂町加茂中874-1",
        "tell": "0854-49-7430",
        "lng": null,
        "lat": null,
        "url": null,
        "etc": "error"
    },
    {
        "type": "kyakuseki",
        "name": "お好み焼鉄板焼    千両",
        "address": "雲南市加茂町加茂中884-2",
        "tell": "0854-49-7393",
        "lng": 132.905359,
        "lat": 35.347517,
        "url": null,
        "etc": ""
    },
    {
        "type": "kyakuseki",
        "name": "ゆたか",
        "address": "雲南市加茂町南加茂259-2",
        "tell": "0854-49-7157",
        "lng": 132.909784,
        "lat": 35.337224,
        "url": null,
        "etc": ""
    },
    {
        "type": "kyakuseki",
        "name": "道の駅    掛合の里",
        "address": "雲南市掛合町掛合1800-2",
        "tell": "0854-62-1510",
        "lng": 132.817037,
        "lat": 35.210931,
        "url": null,
        "etc": ""
    },
    {
        "type": "kyakuseki",
        "name": "かげやま",
        "address": "雲南市掛合町掛合2150-96",
        "tell": "0854-62-1000",
        "lng": 132.814235,
        "lat": 35.199027,
        "url": null,
        "etc": ""
    },
    {
        "type": "kyakuseki",
        "name": "会席たむら",
        "address": "雲南市吉田町吉田2577-1",
        "tell": "0854-74-0081",
        "lng": 132.850163,
        "lat": 35.167049,
        "url": null,
        "etc": ""
    },
    {
        "type": "kyakuseki",
        "name": "割烹 すぎ原",
        "address": "雲南市吉田町吉田2611-1",
        "tell": "0854-74-0118",
        "lng": 132.848941,
        "lat": 35.165977,
        "url": null,
        "etc": ""
    },
    {
        "type": "kyakuseki",
        "name": "芦谷峡やまめの里",
        "address": "雲南市吉田町吉田37-1",
        "tell": "0854-74-0025",
        "lng": 132.89895,
        "lat": 35.133471,
        "url": null,
        "etc": ""
    },
    {
        "type": "kyakuseki",
        "name": "出雲そばレストランむらげ",
        "address": "雲南市吉田町吉田4378-31",
        "tell": "0854-74-9345",
        "lng": 132.830279,
        "lat": 35.167018,
        "url": null,
        "etc": ""
    },
    {
        "type": "kyakuseki",
        "name": "花くま",
        "address": "雲南市三刀屋町98-11",
        "tell": "0854-45-5031",
        "lng": null,
        "lat": null,
        "url": null,
        "etc": "error"
    },
    {
        "type": "kyakuseki",
        "name": "めし屋    里",
        "address": "雲南市三刀屋町下熊谷1633-4",
        "tell": "0854-45-2933",
        "lng": 132.895358,
        "lat": 35.302703,
        "url": null,
        "etc": ""
    },
    {
        "type": "kyakuseki",
        "name": "焼肉酒家さくら亭",
        "address": "雲南市三刀屋町下熊谷1748-3",
        "tell": "0854-45-2229",
        "lng": 132.890481,
        "lat": 35.298534,
        "url": null,
        "etc": ""
    },
    {
        "type": "kyakuseki",
        "name": "旬菜酒房うさぎ組",
        "address": "雲南市三刀屋町下熊谷1749-3",
        "tell": "0854-45-2110",
        "lng": 132.891847,
        "lat": 35.301451,
        "url": null,
        "etc": ""
    },
    {
        "type": "kyakuseki",
        "name": "峯寺遊山荘",
        "address": "雲南市三刀屋町給下1586-1",
        "tell": "0854-45-5800",
        "lng": 132.883209,
        "lat": 35.308541,
        "url": null,
        "etc": ""
    },
    {
        "type": "kyakuseki",
        "name": "布野鮮魚店",
        "address": "雲南市三刀屋町古城35-1",
        "tell": "0854-45-2127",
        "lng": 132.876802,
        "lat": 35.295304,
        "url": null,
        "etc": ""
    },
    {
        "type": "kyakuseki",
        "name": "明石ふれあい館",
        "address": "雲南市三刀屋町坂本870",
        "tell": "0854-45-5678",
        "lng": 132.851089,
        "lat": 35.252923,
        "url": null,
        "etc": ""
    },
    {
        "type": "kyakuseki",
        "name": "レストラン    みとや川",
        "address": "雲南市三刀屋町三刀屋20",
        "tell": "0854-45-5900",
        "lng": 132.883418,
        "lat": 35.295829,
        "url": null,
        "etc": ""
    },
    {
        "type": "kyakuseki",
        "name": "（有）上代    ホテル上代",
        "address": "雲南市三刀屋町三刀屋20",
        "tell": "0854-45-5900",
        "lng": 132.883418,
        "lat": 35.295829,
        "url": null,
        "etc": ""
    },
    {
        "type": "kyakuseki",
        "name": "ながら旅館",
        "address": "雲南市三刀屋町三刀屋307番地",
        "tell": "0854-45-2603",
        "lng": 132.871664,
        "lat": 35.288516,
        "url": null,
        "etc": ""
    },
    {
        "type": "kyakuseki",
        "name": "らあめん市場    麺太鼓",
        "address": "雲南市三刀屋町三刀屋46-2",
        "tell": "0854-45-2374",
        "lng": 132.887145,
        "lat": 35.298179,
        "url": null,
        "etc": ""
    },
    {
        "type": "kyakuseki",
        "name": "日本料理    花ぶさ",
        "address": "雲南市三刀屋町三刀屋51-7",
        "tell": "0854-45-4980",
        "lng": 132.887834,
        "lat": 35.298084,
        "url": null,
        "etc": ""
    },
    {
        "type": "kyakuseki",
        "name": "炉端かば雲南店",
        "address": "雲南市三刀屋町三刀屋71-1",
        "tell": "0854-45-2911",
        "lng": 132.888417,
        "lat": 35.299659,
        "url": null,
        "etc": ""
    },
    {
        "type": "kyakuseki",
        "name": "レストラン旬香",
        "address": "雲南市三刀屋町三刀屋72-2",
        "tell": "0854-45-2311",
        "lng": 132.88902,
        "lat": 35.30022,
        "url": null,
        "etc": ""
    },
    {
        "type": "kyakuseki",
        "name": "ほっかほっか亭三刀屋店",
        "address": "雲南市三刀屋町三刀屋75-9",
        "tell": "0854-45-0233",
        "lng": 132.890775,
        "lat": 35.300645,
        "url": null,
        "etc": ""
    },
    {
        "type": "kyakuseki",
        "name": "白虎茶屋",
        "address": "雲南市大東町下佐世91-2",
        "tell": "0854-43-3711",
        "lng": 132.944486,
        "lat": 35.31665,
        "url": null,
        "etc": ""
    },
    {
        "type": "kyakuseki",
        "name": "曽田屋",
        "address": "雲南市大東町須賀295-8",
        "tell": "0854-43-2458",
        "lng": 133.03071,
        "lat": 35.352635,
        "url": null,
        "etc": ""
    },
    {
        "type": "kyakuseki",
        "name": "あか川食堂",
        "address": "雲南市大東町大東1008-4",
        "tell": "0854-43-2238",
        "lng": 132.964261,
        "lat": 35.32478,
        "url": null,
        "etc": ""
    },
    {
        "type": "kyakuseki",
        "name": "カフェ    蘭",
        "address": "雲南市大東町大東1120-3",
        "tell": "0854-47-7073",
        "lng": 132.966986,
        "lat": 35.320311,
        "url": null,
        "etc": ""
    },
    {
        "type": "kyakuseki",
        "name": "あすなろ",
        "address": "雲南市大東町大東1771-4",
        "tell": "0854-43-2207",
        "lng": 132.969702,
        "lat": 35.324055,
        "url": null,
        "etc": ""
    },
    {
        "type": "kyakuseki",
        "name": "村上旅館",
        "address": "雲南市大東町大東1850",
        "tell": "0854-43-2009",
        "lng": 132.969558,
        "lat": 35.325047,
        "url": null,
        "etc": ""
    },
    {
        "type": "kyakuseki",
        "name": "陽気寿司",
        "address": "雲南市大東町大東2343-15",
        "tell": "0854-43-2625",
        "lng": 132.968577,
        "lat": 35.323644,
        "url": null,
        "etc": ""
    },
    {
        "type": "kyakuseki",
        "name": "居酒屋    めーぷる",
        "address": "雲南市大東町大東998-5",
        "tell": "0854-43-5243",
        "lng": 132.965672,
        "lat": 35.324327,
        "url": null,
        "etc": ""
    },
    {
        "type": "kyakuseki",
        "name": "ちぐさ",
        "address": "雲南市大東町中湯石248-2",
        "tell": "0854-43-6366",
        "lng": null,
        "lat": null,
        "url": null,
        "etc": "error"
    },
    {
        "type": "kyakuseki",
        "name": "道の駅さくらの里きすき",
        "address": "雲南市木次町山方1134番地31",
        "tell": "0854-40-0540",
        "lng": 132.912181,
        "lat": 35.318904,
        "url": null,
        "etc": ""
    },
    {
        "type": "kyakuseki",
        "name": "有限会社    奥出雲葡萄園",
        "address": "雲南市木次町寺領2273番地1",
        "tell": "0854-42-3480",
        "lng": 132.930988,
        "lat": 35.288739,
        "url": null,
        "etc": ""
    },
    {
        "type": "kyakuseki",
        "name": "割烹・仕出し    田丸屋",
        "address": "雲南市木次町新市33",
        "tell": "0854-42-0213",
        "lng": 132.898172,
        "lat": 35.288825,
        "url": null,
        "etc": ""
    },
    {
        "type": "kyakuseki",
        "name": "雲南市    健康の森",
        "address": "雲南市木次町西日登2542-2",
        "tell": "0854-42-2623",
        "lng": 132.90826,
        "lat": 35.27691,
        "url": null,
        "etc": ""
    },
    {
        "type": "kyakuseki",
        "name": "＆CAFE    華羅",
        "address": "雲南市木次町東日登240-4",
        "tell": "0854-42-5887",
        "lng": 132.917042,
        "lat": 35.28274,
        "url": null,
        "etc": ""
    },
    {
        "type": "kyakuseki",
        "name": "森のvillage はぁてぃすと",
        "address": "雲南市木次町湯村1318-1",
        "tell": "0854-48-0015",
        "lng": 132.90855,
        "lat": 35.218551,
        "url": null,
        "etc": ""
    },
    {
        "type": "kyakuseki",
        "name": "石照庭園",
        "address": "雲南市木次町平田472",
        "tell": "0854-48-0033",
        "lng": 132.942062,
        "lat": 35.213272,
        "url": null,
        "etc": ""
    },
    {
        "type": "kyakuseki",
        "name": "道の駅おろちの里",
        "address": "雲南市木次町北原1603",
        "tell": "0854-48-9062",
        "lng": 132.962074,
        "lat": 35.220303,
        "url": null,
        "etc": ""
    },
    {
        "type": "kyakuseki",
        "name": "大衆酒場かもと",
        "address": "雲南市木次町木次468",
        "tell": "0854-42-3304",
        "lng": 132.901077,
        "lat": 35.293941,
        "url": null,
        "etc": ""
    },
    {
        "type": "kyakuseki",
        "name": "有限会社    おくい食堂",
        "address": "雲南市木次町木次468-15",
        "tell": "0854-42-0337",
        "lng": 132.901255,
        "lat": 35.294094,
        "url": null,
        "etc": ""
    },
    {
        "type": "kyakuseki",
        "name": "天野館",
        "address": "雲南市木次町木次51番地",
        "tell": "0854-42-0006",
        "lng": 132.89898,
        "lat": 35.291263,
        "url": null,
        "etc": ""
    },
    {
        "type": "kyakuseki",
        "name": "料理旅館    松江館",
        "address": "雲南市木次町木次53",
        "tell": "0854-42-0051",
        "lng": 132.898802,
        "lat": 35.291199,
        "url": null,
        "etc": ""
    },
    {
        "type": "kyakuseki",
        "name": "すき家    191号益田店",
        "address": "益田市あけぼの西町13-1",
        "tell": "050-3772-1567",
        "lng": 131.83932,
        "lat": 34.680863,
        "url": null,
        "etc": ""
    },
    {
        "type": "kyakuseki",
        "name": "うどんの萬栄",
        "address": "益田市あけぼの本町3-15",
        "tell": "0856-23-4103",
        "lng": 131.839931,
        "lat": 34.680155,
        "url": null,
        "etc": ""
    },
    {
        "type": "kyakuseki",
        "name": "寿し処    みのり",
        "address": "益田市駅前町11-7",
        "tell": "0856-22-1356",
        "lng": 131.840448,
        "lat": 34.67615,
        "url": null,
        "etc": ""
    },
    {
        "type": "kyakuseki",
        "name": "トラットリア・スタジオーネ",
        "address": "益田市駅前町17-1    EAGAビル2F",
        "tell": "0856-22-5695",
        "lng": 131.839084,
        "lat": 34.677316,
        "url": null,
        "etc": ""
    },
    {
        "type": "kyakuseki",
        "name": "目利きの銀次    益田駅前店",
        "address": "益田市駅前町17-1    益田駅前ビルEAGA A棟 1階",
        "tell": "0856-23-5488",
        "lng": 131.839084,
        "lat": 34.677316,
        "url": null,
        "etc": ""
    },
    {
        "type": "kyakuseki",
        "name": "キタノイチバ    益田駅前店",
        "address": "益田市駅前町17-1    益田駅前ビルEAGA A棟 2階",
        "tell": "0856-23-6388",
        "lng": 131.839084,
        "lat": 34.677316,
        "url": null,
        "etc": ""
    },
    {
        "type": "kyakuseki",
        "name": "さかなや道場    益田駅前店",
        "address": "益田市駅前町17-1    益田駅前ビルEAGA    A棟1F",
        "tell": "0856-31-4011",
        "lng": 131.839084,
        "lat": 34.677316,
        "url": null,
        "etc": ""
    },
    {
        "type": "kyakuseki",
        "name": "ホルモン    たけちゃん",
        "address": "益田市駅前町19-11",
        "tell": "0856-22-0129",
        "lng": 131.838451,
        "lat": 34.676952,
        "url": null,
        "etc": ""
    },
    {
        "type": "kyakuseki",
        "name": "HIGHBALL & SWEETS Café Bar CHAINON",
        "address": "益田市駅前町20-14    キーポイントビル101",
        "tell": "0856-25-7729",
        "lng": 131.83832,
        "lat": 34.676783,
        "url": null,
        "etc": ""
    },
    {
        "type": "kyakuseki",
        "name": "一大",
        "address": "益田市駅前町21-19    石見野ビル102号",
        "tell": "0856-32-9333",
        "lng": 131.838056,
        "lat": 34.676647,
        "url": null,
        "etc": ""
    },
    {
        "type": "kyakuseki",
        "name": "活魚    居酒屋    たんぼ",
        "address": "益田市駅前町22-21",
        "tell": "0856-24-2764",
        "lng": 131.83739,
        "lat": 34.676888,
        "url": null,
        "etc": ""
    },
    {
        "type": "kyakuseki",
        "name": "いろはにほへと",
        "address": "益田市駅前町23-21",
        "tell": "0856-22-0133",
        "lng": 131.838206,
        "lat": 34.677,
        "url": null,
        "etc": ""
    },
    {
        "type": "kyakuseki",
        "name": "炉端焼き    やぐら",
        "address": "益田市駅前町23-9",
        "tell": "0856-22-1201",
        "lng": 131.837787,
        "lat": 34.677283,
        "url": null,
        "etc": ""
    },
    {
        "type": "kyakuseki",
        "name": "ソングファクトリー    J’ｚCLUB",
        "address": "益田市駅前町24-3    マスダ21ビル2F",
        "tell": "0856-24-0070",
        "lng": 131.837248,
        "lat": 34.677383,
        "url": null,
        "etc": ""
    },
    {
        "type": "kyakuseki",
        "name": "居酒屋    海鮮丸",
        "address": "益田市駅前町25-5",
        "tell": "0856-22-8484",
        "lng": 131.838143,
        "lat": 34.677836,
        "url": null,
        "etc": ""
    },
    {
        "type": "kyakuseki",
        "name": "ヨシタケ",
        "address": "益田市駅前町3-25",
        "tell": "0856-24-0301",
        "lng": 131.842606,
        "lat": 34.675311,
        "url": null,
        "etc": ""
    },
    {
        "type": "kyakuseki",
        "name": "ガネーシャ",
        "address": "益田市乙吉町335-8    1F",
        "tell": "0856-22-8311",
        "lng": 131.846486,
        "lat": 34.680683,
        "url": null,
        "etc": ""
    },
    {
        "type": "kyakuseki",
        "name": "安正寿し",
        "address": "益田市乙吉町イ331-3",
        "tell": "0856-23-1808",
        "lng": 131.846308,
        "lat": 34.679711,
        "url": null,
        "etc": ""
    },
    {
        "type": "kyakuseki",
        "name": "レストラン    ジャルダン",
        "address": "益田市乙吉町イ336-7",
        "tell": "0856-23-1172",
        "lng": 131.845053,
        "lat": 34.681705,
        "url": null,
        "etc": ""
    },
    {
        "type": "kyakuseki",
        "name": "はま寿司    益田店",
        "address": "益田市乙吉町イ60-5",
        "tell": "0856-31-1707",
        "lng": 131.842764,
        "lat": 34.685857,
        "url": null,
        "etc": ""
    },
    {
        "type": "kyakuseki",
        "name": "どさん子    森",
        "address": "益田市幸町11番76号",
        "tell": "0856-23-0827",
        "lng": 131.857888,
        "lat": 34.672781,
        "url": null,
        "etc": ""
    },
    {
        "type": "kyakuseki",
        "name": "ガスト益田店",
        "address": "益田市高津7丁目21-24",
        "tell": "0856-31-2240",
        "lng": 131.816744,
        "lat": 34.68985,
        "url": null,
        "etc": ""
    },
    {
        "type": "kyakuseki",
        "name": "有限会社    上田",
        "address": "益田市高津一丁目46番2号",
        "tell": "0856-22-0826",
        "lng": 131.823508,
        "lat": 34.679479,
        "url": null,
        "etc": ""
    },
    {
        "type": "kyakuseki",
        "name": "田吾作",
        "address": "益田市赤城町10-3",
        "tell": "0856-22-3022",
        "lng": 131.834754,
        "lat": 34.675705,
        "url": null,
        "etc": ""
    },
    {
        "type": "kyakuseki",
        "name": "ピッツェリア・ダ・ナポイ",
        "address": "益田市中島町イ1605-6",
        "tell": "0586-25-7878",
        "lng": 131.832562,
        "lat": 34.691595,
        "url": null,
        "etc": ""
    },
    {
        "type": "kyakuseki",
        "name": "キッチンそらら",
        "address": "益田市内田町イ597番地    石見空港ターミナルビル内２F",
        "tell": "0856-24-0050",
        "lng": 131.797499,
        "lat": 34.678151,
        "url": null,
        "etc": ""
    },
    {
        "type": "kyakuseki",
        "name": "市原家",
        "address": "益田市本町5の32",
        "tell": "0856-22-0231",
        "lng": 131.860146,
        "lat": 34.676417,
        "url": null,
        "etc": ""
    },
    {
        "type": "kyakuseki",
        "name": "民宿レストラン    とみ",
        "address": "益田市木部町イ833-1",
        "tell": "0856-27-2225",
        "lng": 131.87263,
        "lat": 34.746877,
        "url": null,
        "etc": ""
    },
    {
        "type": "kyakuseki",
        "name": "かめや",
        "address": "益田市有明町1-7",
        "tell": "0856-22-1575",
        "lng": 131.84617,
        "lat": 34.6742,
        "url": null,
        "etc": ""
    },
    {
        "type": "kyakuseki",
        "name": "レストランポニイ",
        "address": "益田市有明町5-15 島根県芸術文化センター グラントワ",
        "tell": "0856-31-1873",
        "lng": 131.847372,
        "lat": 34.673206,
        "url": null,
        "etc": ""
    },
    {
        "type": "kyakuseki",
        "name": "さかい珈琲    江津店",
        "address": "江津市嘉久志町2306-30",
        "tell": "0855-52-7157",
        "lng": 132.218886,
        "lat": 35.009745,
        "url": null,
        "etc": ""
    },
    {
        "type": "kyakuseki",
        "name": "喫茶    茶珈瑠",
        "address": "江津市嘉久志町2306-30    ゆめタウン江津1F",
        "tell": "0855-54-0307",
        "lng": 132.218886,
        "lat": 35.009745,
        "url": null,
        "etc": ""
    },
    {
        "type": "kyakuseki",
        "name": "モスバーガー    ゆめタウン江津店",
        "address": "江津市嘉久志町2306番地30",
        "tell": "0855-54-0501",
        "lng": 132.218886,
        "lat": 35.009745,
        "url": null,
        "etc": ""
    },
    {
        "type": "kyakuseki",
        "name": "Chu-ka chu-Bon 梵天",
        "address": "江津市嘉久志町イ681-2",
        "tell": "0855-52-3311",
        "lng": 132.214003,
        "lat": 35.00351,
        "url": null,
        "etc": ""
    },
    {
        "type": "kyakuseki",
        "name": "大黒食堂（神楽の里    舞乃市内）",
        "address": "江津市後地町3348-113",
        "tell": "0855-55-1155",
        "lng": 132.299892,
        "lat": 35.045219,
        "url": null,
        "etc": ""
    },
    {
        "type": "kyakuseki",
        "name": "麺やオロチ（神楽の里    舞乃市内）",
        "address": "江津市後地町3348-113",
        "tell": "0855-55-1155",
        "lng": 132.299892,
        "lat": 35.045219,
        "url": null,
        "etc": ""
    },
    {
        "type": "kyakuseki",
        "name": "食処酒処    はな",
        "address": "江津市江津町1515-22",
        "tell": "0855-52-5404",
        "lng": 132.224052,
        "lat": 35.014789,
        "url": null,
        "etc": ""
    },
    {
        "type": "kyakuseki",
        "name": "壱番館",
        "address": "江津市江津町1520-123",
        "tell": "0855-52-7811",
        "lng": 132.222258,
        "lat": 35.013156,
        "url": null,
        "etc": ""
    },
    {
        "type": "kyakuseki",
        "name": "田吾作",
        "address": "江津市江津町908-17",
        "tell": "090-3881-3393",
        "lng": 132.223988,
        "lat": 35.013492,
        "url": null,
        "etc": ""
    },
    {
        "type": "kyakuseki",
        "name": "桜江そば    一心",
        "address": "江津市桜江町市山314-7",
        "tell": "0855-92-0123",
        "lng": 132.318704,
        "lat": 34.941286,
        "url": null,
        "etc": ""
    },
    {
        "type": "kyakuseki",
        "name": "大番",
        "address": "江津市桜江町川戸9-13",
        "tell": "0855-92-0252",
        "lng": 132.334669,
        "lat": 34.957729,
        "url": null,
        "etc": ""
    },
    {
        "type": "kyakuseki",
        "name": "やま茶家",
        "address": "江津市松川町市村200ｰ2",
        "tell": "0855-57-0028",
        "lng": 132.282314,
        "lat": 35.004987,
        "url": null,
        "etc": ""
    },
    {
        "type": "kyakuseki",
        "name": "お食事処    あさり亭",
        "address": "江津市浅利町72",
        "tell": "0855-55-1063",
        "lng": 132.276494,
        "lat": 35.036761,
        "url": null,
        "etc": ""
    },
    {
        "type": "kyakuseki",
        "name": "居酒屋やすなが",
        "address": "江津市都野津町2323-2",
        "tell": "0855-53-2325",
        "lng": 132.190653,
        "lat": 34.984578,
        "url": null,
        "etc": ""
    },
    {
        "type": "kyakuseki",
        "name": "旨いとんかつ糸吉",
        "address": "江津市二宮町神主ハ510-3",
        "tell": "0855-53-1968",
        "lng": 132.18157,
        "lat": 34.982131,
        "url": null,
        "etc": ""
    },
    {
        "type": "kyakuseki",
        "name": "レストラン    いるか（異瑠香）",
        "address": "江津市波子町ロ451-6",
        "tell": "0855-28-1122",
        "lng": 132.148798,
        "lat": 34.960997,
        "url": null,
        "etc": ""
    },
    {
        "type": "kyakuseki",
        "name": "有限会社    パレス和光",
        "address": "江津市和木町606-14",
        "tell": "0855-52-0147",
        "lng": 132.203482,
        "lat": 35.002346,
        "url": null,
        "etc": ""
    },
    {
        "type": "kyakuseki",
        "name": "炭火焼肉ふじた",
        "address": "江津市和木町606-18",
        "tell": "0855-52-5912",
        "lng": 132.202904,
        "lat": 35.002132,
        "url": null,
        "etc": ""
    },
    {
        "type": "kyakuseki",
        "name": "むいかいち温泉    ゆ・ら・ら",
        "address": "鹿足郡吉賀町有飯238-2",
        "tell": "0856-77-3001",
        "lng": 131.943843,
        "lat": 34.35291,
        "url": null,
        "etc": ""
    },
    {
        "type": "kyakuseki",
        "name": "焼肉    丸幸",
        "address": "鹿足郡吉賀町六日市441",
        "tell": "0856-77-0555",
        "lng": 131.938216,
        "lat": 34.352846,
        "url": null,
        "etc": ""
    },
    {
        "type": "kyakuseki",
        "name": "キッチン    雅",
        "address": "鹿足郡吉賀町六日市441番地1",
        "tell": "0856-77-0121",
        "lng": 131.938216,
        "lat": 34.352846,
        "url": null,
        "etc": ""
    },
    {
        "type": "kyakuseki",
        "name": "三代目網元    魚鮮水産    出雲市駅南口店",
        "address": "出雲市駅南町1-2-6",
        "tell": "0853-24-7091",
        "lng": 132.754564,
        "lat": 35.359966,
        "url": null,
        "etc": ""
    },
    {
        "type": "kyakuseki",
        "name": "和食居酒屋    神門",
        "address": "出雲市駅南町１丁目3-3",
        "tell": "0853-24-6668",
        "lng": 132.755812,
        "lat": 35.360377,
        "url": null,
        "etc": ""
    },
    {
        "type": "kyakuseki",
        "name": "笑笑    出雲市南口駅前店",
        "address": "出雲市駅南町2-2-1    駅南だるまビル 1階",
        "tell": "0853-23-3788",
        "lng": 132.756389,
        "lat": 35.359669,
        "url": null,
        "etc": ""
    },
    {
        "type": "kyakuseki",
        "name": "すき家    出雲市駅南店",
        "address": "出雲市駅南町2-5-1",
        "tell": "050-3772-1567",
        "lng": 132.75885,
        "lat": 35.360183,
        "url": null,
        "etc": ""
    },
    {
        "type": "kyakuseki",
        "name": "華家",
        "address": "出雲市駅南町3-15-5",
        "tell": "0853-21-7758",
        "lng": 132.756256,
        "lat": 35.358319,
        "url": null,
        "etc": ""
    },
    {
        "type": "kyakuseki",
        "name": "大阪新世界    山ちゃん    出雲駅前店",
        "address": "出雲市駅北町1番",
        "tell": "0853-25-8256",
        "lng": 132.753992,
        "lat": 35.36088,
        "url": null,
        "etc": ""
    },
    {
        "type": "kyakuseki",
        "name": "モスバーガー    出雲駅北町店",
        "address": "出雲市駅北町1番",
        "tell": "0853-23-3668",
        "lng": 132.753992,
        "lat": 35.36088,
        "url": null,
        "etc": ""
    },
    {
        "type": "kyakuseki",
        "name": "奥出雲そば処    一福    出雲駅前店",
        "address": "出雲市駅北町4-1",
        "tell": "0853-24-4206",
        "lng": 132.757384,
        "lat": 35.361335,
        "url": null,
        "etc": ""
    },
    {
        "type": "kyakuseki",
        "name": "ツインリーブスホテル出雲    レストラン「カメーリア」",
        "address": "出雲市駅北町4-1",
        "tell": "0853-30-8080",
        "lng": 132.757384,
        "lat": 35.361335,
        "url": null,
        "etc": ""
    },
    {
        "type": "kyakuseki",
        "name": "アリカフェ    駅前店",
        "address": "出雲市駅北町5-3",
        "tell": "0853-20-7890",
        "lng": 132.759922,
        "lat": 35.36151,
        "url": null,
        "etc": ""
    },
    {
        "type": "kyakuseki",
        "name": "カチャカチャDo    平田店",
        "address": "出雲市園町1412-1",
        "tell": "0853-62-0930",
        "lng": 132.856718,
        "lat": 35.451547,
        "url": null,
        "etc": ""
    },
    {
        "type": "kyakuseki",
        "name": "風月庵",
        "address": "出雲市塩治町765-2",
        "tell": "0853-21-1597",
        "lng": null,
        "lat": null,
        "url": null,
        "etc": "error"
    },
    {
        "type": "kyakuseki",
        "name": "ほっかほっか亭医大通り店",
        "address": "出雲市塩治有原町5-40",
        "tell": "0853-24-8222",
        "lng": null,
        "lat": null,
        "url": null,
        "etc": "error"
    },
    {
        "type": "kyakuseki",
        "name": "手造りうどんたまき    出雲店",
        "address": "出雲市塩冶町2124",
        "tell": "0853-23-1939",
        "lng": 132.746605,
        "lat": 35.351444,
        "url": null,
        "etc": ""
    },
    {
        "type": "kyakuseki",
        "name": "蔵カフェ    おもひで屋",
        "address": "出雲市塩冶町773",
        "tell": "0853-31-5353",
        "lng": 132.750546,
        "lat": 35.352275,
        "url": null,
        "etc": ""
    },
    {
        "type": "kyakuseki",
        "name": "焼肉    大和",
        "address": "出雲市塩冶町826-4",
        "tell": "0853-24-3119",
        "lng": 132.753129,
        "lat": 35.351286,
        "url": null,
        "etc": ""
    },
    {
        "type": "kyakuseki",
        "name": "自家焙煎珈琲    良寛",
        "address": "出雲市塩冶町963-1",
        "tell": "0853-23-7966",
        "lng": 132.758259,
        "lat": 35.354283,
        "url": null,
        "etc": ""
    },
    {
        "type": "kyakuseki",
        "name": "ニューウェルシティ出雲（レストランくにびき）",
        "address": "出雲市塩冶有原町2-15-1",
        "tell": "0853-23-7388",
        "lng": 132.745771,
        "lat": 35.362098,
        "url": null,
        "etc": ""
    },
    {
        "type": "kyakuseki",
        "name": "THE    PARK    IZUMO",
        "address": "出雲市塩冶有原町2丁目10-1",
        "tell": "0853-25-8735",
        "lng": 132.744666,
        "lat": 35.362273,
        "url": null,
        "etc": ""
    },
    {
        "type": "kyakuseki",
        "name": "あおぞら",
        "address": "出雲市湖陵町三部615-5",
        "tell": "0853-31-4056",
        "lng": 132.680974,
        "lat": 35.314483,
        "url": null,
        "etc": ""
    },
    {
        "type": "kyakuseki",
        "name": "焼肉屋    楽市カルビ",
        "address": "出雲市江田町194-5",
        "tell": "0853-23-2580",
        "lng": 132.728563,
        "lat": 35.383827,
        "url": null,
        "etc": ""
    },
    {
        "type": "kyakuseki",
        "name": "カフェ    ピアーチェ",
        "address": "出雲市江田町195",
        "tell": "0853-30-7533",
        "lng": 132.728105,
        "lat": 35.383666,
        "url": null,
        "etc": ""
    },
    {
        "type": "kyakuseki",
        "name": "やわらかとんかつ    かつ楽",
        "address": "出雲市江田町196",
        "tell": "0853-25-3200",
        "lng": 132.727969,
        "lat": 35.384093,
        "url": null,
        "etc": ""
    },
    {
        "type": "kyakuseki",
        "name": "めんふぁん食堂    出雲店",
        "address": "出雲市高岡町418-1",
        "tell": "0853-23-6668",
        "lng": 132.75843,
        "lat": 35.382736,
        "url": null,
        "etc": ""
    },
    {
        "type": "kyakuseki",
        "name": "すき家    出雲高岡店",
        "address": "出雲市高岡町540-1",
        "tell": "050-3772-1567",
        "lng": 132.752458,
        "lat": 35.384482,
        "url": null,
        "etc": ""
    },
    {
        "type": "kyakuseki",
        "name": "凡蔵",
        "address": "出雲市今井町738",
        "tell": "0853-24-2096",
        "lng": null,
        "lat": null,
        "url": null,
        "etc": "error"
    },
    {
        "type": "kyakuseki",
        "name": "壱香庵",
        "address": "出雲市今市町1224",
        "tell": "0853-77-7845",
        "lng": 132.760533,
        "lat": 35.362677,
        "url": null,
        "etc": ""
    },
    {
        "type": "kyakuseki",
        "name": "のどぐろ日本海",
        "address": "出雲市今市町1271-5",
        "tell": "0853-21-8686",
        "lng": 132.757389,
        "lat": 35.361791,
        "url": null,
        "etc": ""
    },
    {
        "type": "kyakuseki",
        "name": "Gyro",
        "address": "出雲市今市町1274-1 STビル2F",
        "tell": "0853-31-6577",
        "lng": 132.757186,
        "lat": 35.362338,
        "url": null,
        "etc": ""
    },
    {
        "type": "kyakuseki",
        "name": "やきとり家すみれ出雲店",
        "address": "出雲市今市町1307",
        "tell": "0853-25-8430",
        "lng": 132.757425,
        "lat": 35.362907,
        "url": null,
        "etc": ""
    },
    {
        "type": "kyakuseki",
        "name": "四季味処    てんてん亭",
        "address": "出雲市今市町1310-9",
        "tell": "0853-21-2050",
        "lng": 132.757,
        "lat": 35.362624,
        "url": null,
        "etc": ""
    },
    {
        "type": "kyakuseki",
        "name": "(有)いわみ寿司",
        "address": "出雲市今市町1370",
        "tell": "0853-23-1991",
        "lng": 132.757764,
        "lat": 35.363838,
        "url": null,
        "etc": ""
    },
    {
        "type": "kyakuseki",
        "name": "山陰居酒屋    魚っぴー",
        "address": "出雲市今市町1436",
        "tell": "0853-23-7165",
        "lng": 132.758444,
        "lat": 35.36333,
        "url": null,
        "etc": ""
    },
    {
        "type": "kyakuseki",
        "name": "ホテル武志山荘",
        "address": "出雲市今市町2041",
        "tell": "0853-21-1111",
        "lng": 132.765738,
        "lat": 35.363027,
        "url": null,
        "etc": ""
    },
    {
        "type": "kyakuseki",
        "name": "献上そば    羽根屋本店",
        "address": "出雲市今市町549",
        "tell": "0853-21-0058",
        "lng": 132.760752,
        "lat": 35.364443,
        "url": null,
        "etc": ""
    },
    {
        "type": "kyakuseki",
        "name": "ツバメヤ",
        "address": "出雲市今市町651",
        "tell": "0853-20-1230",
        "lng": 132.757819,
        "lat": 35.364049,
        "url": null,
        "etc": ""
    },
    {
        "type": "kyakuseki",
        "name": "出雲料理    おくに",
        "address": "出雲市今市町755-1",
        "tell": "0853-25-0923",
        "lng": 132.755489,
        "lat": 35.363477,
        "url": null,
        "etc": ""
    },
    {
        "type": "kyakuseki",
        "name": "美喰Labo我龍",
        "address": "出雲市今市町822-10",
        "tell": "0853-24-8675",
        "lng": 132.75327,
        "lat": 35.36254,
        "url": null,
        "etc": ""
    },
    {
        "type": "kyakuseki",
        "name": "お食事処    和（やわらぎ）",
        "address": "出雲市今市町864-5",
        "tell": "0853-23-1700",
        "lng": 132.752442,
        "lat": 35.362577,
        "url": null,
        "etc": ""
    },
    {
        "type": "kyakuseki",
        "name": "そば処    あごう",
        "address": "出雲市今市町87    ラピタ本店別棟",
        "tell": "0853-23-6088",
        "lng": 132.753512,
        "lat": 35.368329,
        "url": null,
        "etc": ""
    },
    {
        "type": "kyakuseki",
        "name": "善ちゃんラーメン    出雲店",
        "address": "出雲市今市町928-2",
        "tell": "080-2919-2683",
        "lng": 132.756792,
        "lat": 35.362663,
        "url": null,
        "etc": ""
    },
    {
        "type": "kyakuseki",
        "name": "すし居酒屋日本海",
        "address": "出雲市今市町971-16",
        "tell": "0853-31-9292",
        "lng": 132.756906,
        "lat": 35.361935,
        "url": null,
        "etc": ""
    },
    {
        "type": "kyakuseki",
        "name": "いづものSAKABA",
        "address": "出雲市今市町971-27",
        "tell": "0853-31-4180",
        "lng": 132.757142,
        "lat": 35.361896,
        "url": null,
        "etc": ""
    },
    {
        "type": "kyakuseki",
        "name": "山陰魚酒場    丸善水産    出雲店",
        "address": "出雲市今市町971-3 ホテルα-1出雲 1階",
        "tell": "0853-24-7755",
        "lng": 132.755692,
        "lat": 35.361649,
        "url": null,
        "etc": ""
    },
    {
        "type": "kyakuseki",
        "name": "手打ち出雲そば    ほしえん",
        "address": "出雲市今市町駅通り905-18",
        "tell": "0853-22-0050",
        "lng": 132.759016,
        "lat": 35.359271,
        "url": null,
        "etc": ""
    },
    {
        "type": "kyakuseki",
        "name": "モッチモパスタ    出雲店",
        "address": "出雲市今市町北本町5-4-13",
        "tell": "0853-24-0141",
        "lng": 132.763821,
        "lat": 35.370082,
        "url": null,
        "etc": ""
    },
    {
        "type": "kyakuseki",
        "name": "お好み焼肉道とん堀    出雲店",
        "address": "出雲市枝大津町20-1",
        "tell": "0853-22-5556",
        "lng": 132.766071,
        "lat": 35.372829,
        "url": null,
        "etc": ""
    },
    {
        "type": "kyakuseki",
        "name": "もんぜん",
        "address": "出雲市小境町2117-3",
        "tell": "0853-67-0630",
        "lng": 132.873979,
        "lat": 35.495251,
        "url": null,
        "etc": ""
    },
    {
        "type": "kyakuseki",
        "name": "有限会社よふきや",
        "address": "出雲市小境町411番地4",
        "tell": "0853-67-0804",
        "lng": 132.884808,
        "lat": 35.460241,
        "url": null,
        "etc": ""
    },
    {
        "type": "kyakuseki",
        "name": "一畑山コテージ（茶房 空）",
        "address": "出雲市小境町803",
        "tell": "0853-67-0211",
        "lng": 132.873848,
        "lat": 35.496104,
        "url": null,
        "etc": ""
    },
    {
        "type": "kyakuseki",
        "name": "割烹    ほうちょう",
        "address": "出雲市小山町143-11",
        "tell": "0853-22-1157",
        "lng": 132.746401,
        "lat": 35.374567,
        "url": null,
        "etc": ""
    },
    {
        "type": "kyakuseki",
        "name": "ランコントレ",
        "address": "出雲市小山町163番地",
        "tell": "0853-24-2477",
        "lng": 132.744873,
        "lat": 35.373539,
        "url": null,
        "etc": ""
    },
    {
        "type": "kyakuseki",
        "name": "coffee house ヒナタバコ",
        "address": "出雲市小山町346-3 izumoTERRACE 1F",
        "tell": "0853-25-8891",
        "lng": 132.74143,
        "lat": 35.370553,
        "url": null,
        "etc": ""
    },
    {
        "type": "kyakuseki",
        "name": "そば処    神門",
        "address": "出雲市常松町378",
        "tell": "0853-24-6200",
        "lng": 132.728922,
        "lat": 35.38544,
        "url": null,
        "etc": ""
    },
    {
        "type": "kyakuseki",
        "name": "（有）リープ･エンタープライズ    料亭ひがしや",
        "address": "出雲市神西沖町2011番地2",
        "tell": "0853-43-1024",
        "lng": 132.691613,
        "lat": 35.337514,
        "url": null,
        "etc": ""
    },
    {
        "type": "kyakuseki",
        "name": "出雲北陵高校    ランチルーム",
        "address": "出雲市西林木町３番地",
        "tell": null,
        "lng": 132.766926,
        "lat": 35.396284,
        "url": null,
        "etc": ""
    },
    {
        "type": "kyakuseki",
        "name": "kitchen魚見坂",
        "address": "出雲市多伎町久村1581番地の2",
        "tell": "0853-77-5542",
        "lng": 132.642405,
        "lat": 35.300629,
        "url": null,
        "etc": ""
    },
    {
        "type": "kyakuseki",
        "name": "レストランタラソ",
        "address": "出雲市多伎町多岐859-1",
        "tell": "0853-86-2911",
        "lng": 132.627846,
        "lat": 35.287056,
        "url": null,
        "etc": ""
    },
    {
        "type": "kyakuseki",
        "name": "平和そば本店",
        "address": "出雲市大社町杵築西2034",
        "tell": "0853-53-3240",
        "lng": 132.677476,
        "lat": 35.39432,
        "url": null,
        "etc": ""
    },
    {
        "type": "kyakuseki",
        "name": "松の屋",
        "address": "出雲市大社町杵築東261",
        "tell": "0853-53-2555",
        "lng": 132.684169,
        "lat": 35.400602,
        "url": null,
        "etc": ""
    },
    {
        "type": "kyakuseki",
        "name": "そば処    八雲東店",
        "address": "出雲市大社町杵築東264-2",
        "tell": "0853-53-0257",
        "lng": 132.684383,
        "lat": 35.400352,
        "url": null,
        "etc": ""
    },
    {
        "type": "kyakuseki",
        "name": "観光センターいずも",
        "address": "出雲市大社町杵築東273番地",
        "tell": "0853-53-3030",
        "lng": 132.683047,
        "lat": 35.399927,
        "url": null,
        "etc": ""
    },
    {
        "type": "kyakuseki",
        "name": "そば処    おくに",
        "address": "出雲市大社町杵築東276",
        "tell": "0853-53-5190",
        "lng": 132.683019,
        "lat": 35.399863,
        "url": null,
        "etc": ""
    },
    {
        "type": "kyakuseki",
        "name": "そば処    八雲本店",
        "address": "出雲市大社町杵築東276-1",
        "tell": "0853-53-0257",
        "lng": 132.682942,
        "lat": 35.399802,
        "url": null,
        "etc": ""
    },
    {
        "type": "kyakuseki",
        "name": "山太",
        "address": "出雲市大社町杵築東283-2 観光センターいずも内",
        "tell": "0853-25-8378",
        "lng": 132.682272,
        "lat": 35.400083,
        "url": null,
        "etc": ""
    },
    {
        "type": "kyakuseki",
        "name": "そば処    田中屋",
        "address": "出雲市大社町杵築東364",
        "tell": "0853-53-2351",
        "lng": 132.685694,
        "lat": 35.3967,
        "url": null,
        "etc": ""
    },
    {
        "type": "kyakuseki",
        "name": "有限会社    ゆたか亭",
        "address": "出雲市大社町杵築東384",
        "tell": "0853-53-2208",
        "lng": 132.684967,
        "lat": 35.397322,
        "url": null,
        "etc": ""
    },
    {
        "type": "kyakuseki",
        "name": "食事処    小望月",
        "address": "出雲市大社町杵築東620",
        "tell": "0853-53-0257",
        "lng": 132.679948,
        "lat": 35.397489,
        "url": null,
        "etc": ""
    },
    {
        "type": "kyakuseki",
        "name": "千鳥そば",
        "address": "出雲市大社町杵築東655",
        "tell": "0853-53-0135",
        "lng": 132.681256,
        "lat": 35.397244,
        "url": null,
        "etc": ""
    },
    {
        "type": "kyakuseki",
        "name": "出雲そば    めぐみ。惠",
        "address": "出雲市大社町杵築南1342-6",
        "tell": "0853-27-9899",
        "lng": 132.686936,
        "lat": 35.392723,
        "url": null,
        "etc": ""
    },
    {
        "type": "kyakuseki",
        "name": "焼肉･韓国家庭料理    幸楽苑",
        "address": "出雲市大社町杵築南1386-2",
        "tell": "0853-53-3749",
        "lng": 132.686381,
        "lat": 35.391659,
        "url": null,
        "etc": ""
    },
    {
        "type": "kyakuseki",
        "name": "大正庵",
        "address": "出雲市大社町杵築南1399-4",
        "tell": "0853-53-2454",
        "lng": 132.684139,
        "lat": 35.391581,
        "url": null,
        "etc": ""
    },
    {
        "type": "kyakuseki",
        "name": "本格手打蕎麦    出雲砂屋",
        "address": "出雲市大社町杵築南772    2F",
        "tell": "0853-27-9006",
        "lng": 132.686783,
        "lat": 35.396122,
        "url": null,
        "etc": ""
    },
    {
        "type": "kyakuseki",
        "name": "出雲えにし",
        "address": "出雲市大社町杵築南836-1",
        "tell": "0853-53-0165",
        "lng": 132.686447,
        "lat": 35.395564,
        "url": null,
        "etc": ""
    },
    {
        "type": "kyakuseki",
        "name": "出雲日本海    出雲大社正門前店",
        "address": "出雲市大社町杵築南840-1",
        "tell": "0853-53-6262",
        "lng": 132.686236,
        "lat": 35.396264,
        "url": null,
        "etc": ""
    },
    {
        "type": "kyakuseki",
        "name": "玉木製麺    ご縁横丁店",
        "address": "出雲市大社町杵築南840-1",
        "tell": "0853-31-4545",
        "lng": 132.686236,
        "lat": 35.396264,
        "url": null,
        "etc": ""
    },
    {
        "type": "kyakuseki",
        "name": "奥出雲そば処    一福    出雲大社神門通店",
        "address": "出雲市大社町杵築南860-8",
        "tell": "0853-53-0100",
        "lng": 132.687039,
        "lat": 35.394367,
        "url": null,
        "etc": ""
    },
    {
        "type": "kyakuseki",
        "name": "そば処    吉兆",
        "address": "出雲市大社町修理免735-5",
        "tell": "0853-31-9065",
        "lng": 132.686275,
        "lat": 35.38919,
        "url": null,
        "etc": ""
    },
    {
        "type": "kyakuseki",
        "name": "日御碕ドライブイン",
        "address": "出雲市大社町日御碕1022",
        "tell": "0853-54-5036",
        "lng": 132.628907,
        "lat": 35.420243,
        "url": null,
        "etc": ""
    },
    {
        "type": "kyakuseki",
        "name": "カフェ    ファヴォリ",
        "address": "出雲市大社町入南584-1",
        "tell": "0853-21-1115",
        "lng": null,
        "lat": null,
        "url": null,
        "etc": "error"
    },
    {
        "type": "kyakuseki",
        "name": "アンジェグレースガーデン    ラ・マール",
        "address": "出雲市大社町入南584-1",
        "tell": "0853-25-3066",
        "lng": null,
        "lat": null,
        "url": null,
        "etc": "error"
    },
    {
        "type": "kyakuseki",
        "name": "島根ワイナリー バーベキューハウス｢シャトー弥山｣",
        "address": "出雲市大社町菱根264番地2",
        "tell": "0853-53-5577",
        "lng": 132.710745,
        "lat": 35.395928,
        "url": null,
        "etc": ""
    },
    {
        "type": "kyakuseki",
        "name": "駕籠石庵",
        "address": "出雲市大社町北荒木172-1",
        "tell": "080-8236-1796",
        "lng": 132.688564,
        "lat": 35.388048,
        "url": null,
        "etc": ""
    },
    {
        "type": "kyakuseki",
        "name": "リビドー洋菓子店    出雲店",
        "address": "出雲市大津新崎町1-23-2",
        "tell": "0853-22-5899",
        "lng": 132.765516,
        "lat": 35.370254,
        "url": null,
        "etc": ""
    },
    {
        "type": "kyakuseki",
        "name": "カレーハウスCoCo壱番屋    出雲大津新崎店",
        "address": "出雲市大津新崎町4-1",
        "tell": "0853-24-9855",
        "lng": 132.769935,
        "lat": 35.369099,
        "url": null,
        "etc": ""
    },
    {
        "type": "kyakuseki",
        "name": "有限会社    灘屋",
        "address": "出雲市大津町2063番地11",
        "tell": "0853-21-2128",
        "lng": 132.771098,
        "lat": 35.367055,
        "url": null,
        "etc": ""
    },
    {
        "type": "kyakuseki",
        "name": "羽根屋    大津店",
        "address": "出雲市大津町699",
        "tell": "0853-21-5084",
        "lng": 132.771268,
        "lat": 35.370049,
        "url": null,
        "etc": ""
    },
    {
        "type": "kyakuseki",
        "name": "すき家    ゆめタウン出雲店",
        "address": "出雲市大塚町650-1",
        "tell": "050-3772-1567",
        "lng": 132.756228,
        "lat": 35.377403,
        "url": null,
        "etc": ""
    },
    {
        "type": "kyakuseki",
        "name": "ペッパーランチ    ゆめタウン出雲店",
        "address": "出雲市大塚町650-1",
        "tell": "0853-31-9529",
        "lng": 132.756228,
        "lat": 35.377403,
        "url": null,
        "etc": ""
    },
    {
        "type": "kyakuseki",
        "name": "はなまるうどん    ゆめタウン出雲店",
        "address": "出雲市大塚町650-1",
        "tell": "0853-24-6012",
        "lng": 132.756228,
        "lat": 35.377403,
        "url": null,
        "etc": ""
    },
    {
        "type": "kyakuseki",
        "name": "はま寿司    出雲大塚店",
        "address": "出雲市大塚町750番地",
        "tell": "0853-24-8021",
        "lng": 132.751309,
        "lat": 35.378394,
        "url": null,
        "etc": ""
    },
    {
        "type": "kyakuseki",
        "name": "株式会社天神本店",
        "address": "出雲市天神町731",
        "tell": "0853-21-8252",
        "lng": 132.740316,
        "lat": 35.353013,
        "url": null,
        "etc": ""
    },
    {
        "type": "kyakuseki",
        "name": "御食事処    神苑",
        "address": "出雲市天神町860-10    ホテルリッチガーデン内",
        "tell": "0853-25-3356",
        "lng": 132.744271,
        "lat": 35.351414,
        "url": null,
        "etc": ""
    },
    {
        "type": "kyakuseki",
        "name": "くら寿司    出雲店",
        "address": "出雲市渡橋町1055-1",
        "tell": "0853-20-0610",
        "lng": 132.740122,
        "lat": 35.367489,
        "url": null,
        "etc": ""
    },
    {
        "type": "kyakuseki",
        "name": "炉端かば出雲店",
        "address": "出雲市渡橋町1211",
        "tell": "0853-22-7000",
        "lng": 132.742607,
        "lat": 35.365095,
        "url": null,
        "etc": ""
    },
    {
        "type": "kyakuseki",
        "name": "旬彩 IZAKAYA 印",
        "address": "出雲市渡橋町1217シオンビル2階",
        "tell": "0853-27-9177",
        "lng": 132.743241,
        "lat": 35.364006,
        "url": null,
        "etc": ""
    },
    {
        "type": "kyakuseki",
        "name": "ガスト出雲店",
        "address": "出雲市渡橋町514-2",
        "tell": "0853-20-2781",
        "lng": 132.746446,
        "lat": 35.366115,
        "url": null,
        "etc": ""
    },
    {
        "type": "kyakuseki",
        "name": "快活CLUB    出雲店",
        "address": "出雲市渡橋町754-5",
        "tell": "0853-24-9888",
        "lng": 132.740894,
        "lat": 35.36622,
        "url": null,
        "etc": ""
    },
    {
        "type": "kyakuseki",
        "name": "grappino gカフェ",
        "address": "出雲市渡橋町81マツイビルgrappino2階",
        "tell": "0853-25-0356",
        "lng": 132.752037,
        "lat": 35.36764,
        "url": null,
        "etc": ""
    },
    {
        "type": "kyakuseki",
        "name": "牛角出雲渡橋店",
        "address": "出雲市渡橋町820-1",
        "tell": "0853-30-0929",
        "lng": 132.746124,
        "lat": 35.366576,
        "url": null,
        "etc": ""
    },
    {
        "type": "kyakuseki",
        "name": "お食事処    かいづ",
        "address": "出雲市馬木北町31",
        "tell": "0853-48-0155",
        "lng": 132.764125,
        "lat": 35.33915,
        "url": null,
        "etc": ""
    },
    {
        "type": "kyakuseki",
        "name": "ほっかほっか亭浜山通り店",
        "address": "出雲市白枝町1158-1",
        "tell": "0853-24-8410",
        "lng": 132.734022,
        "lat": 35.374938,
        "url": null,
        "etc": ""
    },
    {
        "type": "kyakuseki",
        "name": "鶴華    波積屋",
        "address": "出雲市斐川町沖洲1630",
        "tell": "0853-72-0770",
        "lng": 132.867307,
        "lat": 35.404868,
        "url": null,
        "etc": ""
    },
    {
        "type": "kyakuseki",
        "name": "La chocolaterie NANAIRO",
        "address": "出雲市斐川町坂田1934",
        "tell": "0853-25-7676",
        "lng": 132.856233,
        "lat": 35.421977,
        "url": null,
        "etc": ""
    },
    {
        "type": "kyakuseki",
        "name": "ガスト島根斐川店",
        "address": "出雲市斐川町上直江1316",
        "tell": "0853-73-8102",
        "lng": 132.808555,
        "lat": 35.386653,
        "url": null,
        "etc": ""
    },
    {
        "type": "kyakuseki",
        "name": "喫茶    軽食    チャコール",
        "address": "出雲市斐川町荘原2244-1",
        "tell": "0853-72-9178",
        "lng": 132.850881,
        "lat": 35.396699,
        "url": null,
        "etc": ""
    },
    {
        "type": "kyakuseki",
        "name": "縁福",
        "address": "出雲市斐川町荘原2891-4",
        "tell": "0853-31-7788",
        "lng": 132.852695,
        "lat": 35.39638,
        "url": null,
        "etc": ""
    },
    {
        "type": "kyakuseki",
        "name": "手造りうどんたまき    直江店",
        "address": "出雲市斐川町直江4523",
        "tell": "0853-72-2112",
        "lng": 132.814146,
        "lat": 35.389197,
        "url": null,
        "etc": ""
    },
    {
        "type": "kyakuseki",
        "name": "コメダ珈琲店    出雲姫原店",
        "address": "出雲市姫原4丁目6-2",
        "tell": "0853-31-5090",
        "lng": 132.757369,
        "lat": 35.375,
        "url": null,
        "etc": ""
    },
    {
        "type": "kyakuseki",
        "name": "かつ庵    出雲姫原店",
        "address": "出雲市姫原町292",
        "tell": "0120-070-140",
        "lng": 132.752914,
        "lat": 35.370101,
        "url": null,
        "etc": ""
    },
    {
        "type": "kyakuseki",
        "name": "そば縁",
        "address": "出雲市浜町517-1",
        "tell": "0853-24-8288",
        "lng": 132.714645,
        "lat": 35.380949,
        "url": null,
        "etc": ""
    },
    {
        "type": "kyakuseki",
        "name": "献上そば    羽根屋伝承館店",
        "address": "出雲市浜町520",
        "tell": "0853-25-0312",
        "lng": 132.715068,
        "lat": 35.381335,
        "url": null,
        "etc": ""
    },
    {
        "type": "kyakuseki",
        "name": "アンジェグレースガーデン    セルジュ",
        "address": "出雲市浜町540-3",
        "tell": "0853-25-3066",
        "lng": 132.713784,
        "lat": 35.384543,
        "url": null,
        "etc": ""
    },
    {
        "type": "kyakuseki",
        "name": "大衆酒場    まんちゃん",
        "address": "出雲市平田町2273-13",
        "tell": "0853-63-7123",
        "lng": 132.824624,
        "lat": 35.433548,
        "url": null,
        "etc": ""
    },
    {
        "type": "kyakuseki",
        "name": "有限会社    おかや",
        "address": "出雲市平田町2390番地の3",
        "tell": "0853-63-3167",
        "lng": 132.826057,
        "lat": 35.435314,
        "url": null,
        "etc": ""
    },
    {
        "type": "kyakuseki",
        "name": "焼肉    まんまる",
        "address": "出雲市平田町2428番地5",
        "tell": "0853-25-7873",
        "lng": 132.826202,
        "lat": 35.436511,
        "url": null,
        "etc": ""
    },
    {
        "type": "kyakuseki",
        "name": "フランス料理ラルカンシェル",
        "address": "出雲市平田町2560-1",
        "tell": "0853-63-8117",
        "lng": 132.831159,
        "lat": 35.439397,
        "url": null,
        "etc": ""
    },
    {
        "type": "kyakuseki",
        "name": "ガスト島根平田店",
        "address": "出雲市平田町7145番地",
        "tell": "0853-62-9833",
        "lng": 132.822871,
        "lat": 35.439767,
        "url": null,
        "etc": ""
    },
    {
        "type": "kyakuseki",
        "name": "ごはん屋    棉の花",
        "address": "出雲市平田町841",
        "tell": "0853-62-2631",
        "lng": 132.821169,
        "lat": 35.438306,
        "url": null,
        "etc": ""
    },
    {
        "type": "kyakuseki",
        "name": "有限会社    原料理店",
        "address": "出雲市平田町892-8",
        "tell": "0853-62-2222",
        "lng": 132.82258,
        "lat": 35.436578,
        "url": null,
        "etc": ""
    },
    {
        "type": "kyakuseki",
        "name": "文吉たまき",
        "address": "出雲市平田町片原789-17",
        "tell": "0853-25-7951",
        "lng": null,
        "lat": null,
        "url": null,
        "etc": "error"
    },
    {
        "type": "kyakuseki",
        "name": "モスバーガー    出雲ドーム店",
        "address": "出雲市矢野町999",
        "tell": "0853-23-0141",
        "lng": 132.739682,
        "lat": 35.382207,
        "url": null,
        "etc": ""
    },
    {
        "type": "kyakuseki",
        "name": "大正倶楽部",
        "address": "松江市伊勢宮町515-1    双和ビル2階",
        "tell": "0852-26-6665",
        "lng": 133.06044,
        "lat": 35.465482,
        "url": null,
        "etc": ""
    },
    {
        "type": "kyakuseki",
        "name": "松江海鮮市場    鮨主水",
        "address": "松江市伊勢宮町517-10 ダイヤビル1階",
        "tell": "0852-22-1010",
        "lng": 133.060873,
        "lat": 35.465582,
        "url": null,
        "etc": ""
    },
    {
        "type": "kyakuseki",
        "name": "阿雅紗    松江店",
        "address": "松江市伊勢宮町535-15 レインボービル1階",
        "tell": "0852-21-3777",
        "lng": 133.059674,
        "lat": 35.465635,
        "url": null,
        "etc": ""
    },
    {
        "type": "kyakuseki",
        "name": "旬菜・郷土料理    一隆",
        "address": "松江市伊勢宮町537-15",
        "tell": "0852-28-0511",
        "lng": 133.059637,
        "lat": 35.466157,
        "url": null,
        "etc": ""
    },
    {
        "type": "kyakuseki",
        "name": "神代そば",
        "address": "松江市奥谷町324-5",
        "tell": "0852-21-4866",
        "lng": 133.04843,
        "lat": 35.479297,
        "url": null,
        "etc": ""
    },
    {
        "type": "kyakuseki",
        "name": "レストラン    アラスカ",
        "address": "松江市岡本町1092-4",
        "tell": "0852-88-3239",
        "lng": 132.952604,
        "lat": 35.475469,
        "url": null,
        "etc": ""
    },
    {
        "type": "kyakuseki",
        "name": "快活CLUB    松江店",
        "address": "松江市学園1-1-1",
        "tell": "0852-60-1788",
        "lng": 133.063956,
        "lat": 35.478226,
        "url": null,
        "etc": ""
    },
    {
        "type": "kyakuseki",
        "name": "ほっかほっか亭学園通り店",
        "address": "松江市学園1丁目19-1",
        "tell": "0852-32-8450",
        "lng": 133.068847,
        "lat": 35.477137,
        "url": null,
        "etc": ""
    },
    {
        "type": "kyakuseki",
        "name": "コメダ珈琲店    松江学園店",
        "address": "松江市学園1丁目6-18",
        "tell": "0852-60-2040",
        "lng": 133.063878,
        "lat": 35.48025,
        "url": null,
        "etc": ""
    },
    {
        "type": "kyakuseki",
        "name": "手造りうどんたまき    松江店",
        "address": "松江市学園1丁目6-3",
        "tell": "0852-27-1531",
        "lng": 133.063911,
        "lat": 35.479242,
        "url": null,
        "etc": ""
    },
    {
        "type": "kyakuseki",
        "name": "レインボープラザ",
        "address": "松江市学園1丁目8-8",
        "tell": "0852-27-6900",
        "lng": 133.064536,
        "lat": 35.480148,
        "url": null,
        "etc": ""
    },
    {
        "type": "kyakuseki",
        "name": "くら寿司    松江店",
        "address": "松江市学園2-2-43",
        "tell": "0852-60-0610",
        "lng": 133.064722,
        "lat": 35.480761,
        "url": null,
        "etc": ""
    },
    {
        "type": "kyakuseki",
        "name": "アリカフェ    学園店",
        "address": "松江市学園2丁目20-24",
        "tell": "0852-60-0773",
        "lng": 133.06758,
        "lat": 35.481347,
        "url": null,
        "etc": ""
    },
    {
        "type": "kyakuseki",
        "name": "ガスト松江北店",
        "address": "松江市学園2丁目29-8",
        "tell": "0852-55-8572",
        "lng": 133.07058,
        "lat": 35.484136,
        "url": null,
        "etc": ""
    },
    {
        "type": "kyakuseki",
        "name": "やきとり蘭土",
        "address": "松江市学園南2-1-5",
        "tell": "0852-32-8998",
        "lng": 133.064106,
        "lat": 35.473423,
        "url": null,
        "etc": ""
    },
    {
        "type": "kyakuseki",
        "name": "カレーハウスCoCo壱番屋    松江学園通り店",
        "address": "松江市学園南町2-11-27",
        "tell": "0852-28-0266",
        "lng": null,
        "lat": null,
        "url": null,
        "etc": "error"
    },
    {
        "type": "kyakuseki",
        "name": "玉造国際ホテル    Rivage Choraku（レストランRivage）",
        "address": "松江市玉湯町湯町148番地2",
        "tell": "0852-62-0531",
        "lng": 133.012688,
        "lat": 35.437276,
        "url": null,
        "etc": ""
    },
    {
        "type": "kyakuseki",
        "name": "ほっかほっか亭合同庁舎前店",
        "address": "松江市古志原3-18-10    Kスクエア",
        "tell": "0852-60-7555",
        "lng": 133.084456,
        "lat": 35.44724,
        "url": null,
        "etc": ""
    },
    {
        "type": "kyakuseki",
        "name": "居酒屋    樂樂",
        "address": "松江市御手船場568-10",
        "tell": "0852-24-3956",
        "lng": null,
        "lat": null,
        "url": null,
        "etc": "error"
    },
    {
        "type": "kyakuseki",
        "name": "炉端かば松江駅前店",
        "address": "松江市御手船場町564-2",
        "tell": "0852-26-9900",
        "lng": 133.063171,
        "lat": 35.465616,
        "url": null,
        "etc": ""
    },
    {
        "type": "kyakuseki",
        "name": "善ちゃんラーメン    松江店",
        "address": "松江市御手船場町567 ホテルα-1 松江1階",
        "tell": "080-2919-2682",
        "lng": 133.061857,
        "lat": 35.465863,
        "url": null,
        "etc": ""
    },
    {
        "type": "kyakuseki",
        "name": "山陰魚酒場    丸善水産    松江店",
        "address": "松江市御手船場町567 ホテルα-1松江 1階",
        "tell": "0852-24-3933",
        "lng": 133.061857,
        "lat": 35.465863,
        "url": null,
        "etc": ""
    },
    {
        "type": "kyakuseki",
        "name": "カレーハウスCoCo壱番屋    松江城山西通り店",
        "address": "松江市黒田町458-11",
        "tell": "0852-67-3998",
        "lng": 133.044486,
        "lat": 35.479483,
        "url": null,
        "etc": ""
    },
    {
        "type": "kyakuseki",
        "name": "ラーメン茶屋てまり",
        "address": "松江市黒田町469-2",
        "tell": "0852-27-4600",
        "lng": 133.044541,
        "lat": 35.480766,
        "url": null,
        "etc": ""
    },
    {
        "type": "kyakuseki",
        "name": "めんふぁん食堂    黒田店",
        "address": "松江市黒田町502-6",
        "tell": "0852-24-5024",
        "lng": 133.045324,
        "lat": 35.479002,
        "url": null,
        "etc": ""
    },
    {
        "type": "kyakuseki",
        "name": "松江堀川・地ビール館",
        "address": "松江市黒田町509-1",
        "tell": "0852-55-8877",
        "lng": 133.046155,
        "lat": 35.479255,
        "url": null,
        "etc": ""
    },
    {
        "type": "kyakuseki",
        "name": "モッチモパスタ    松江店",
        "address": "松江市山代町1017",
        "tell": "0852-67-2259",
        "lng": 133.086117,
        "lat": 35.443579,
        "url": null,
        "etc": ""
    },
    {
        "type": "kyakuseki",
        "name": "焼肉＆グルメバイキングかたおか松江店",
        "address": "松江市山代町1021",
        "tell": "0852-67-2983",
        "lng": 133.0872,
        "lat": 35.443034,
        "url": null,
        "etc": ""
    },
    {
        "type": "kyakuseki",
        "name": "やきとり家すみれ    松江店",
        "address": "松江市寺町198",
        "tell": "0852-67-5855",
        "lng": 133.059324,
        "lat": 35.46446,
        "url": null,
        "etc": ""
    },
    {
        "type": "kyakuseki",
        "name": "笑笑    松江駅前店",
        "address": "松江市寺町198-57    ボートピア松江ビル 1階",
        "tell": "0852-32-4188",
        "lng": 133.05839,
        "lat": 35.464388,
        "url": null,
        "etc": ""
    },
    {
        "type": "kyakuseki",
        "name": "さんいんSAKABA",
        "address": "松江市寺町199-1錦弘堂ビル1階",
        "tell": "0852-67-1175",
        "lng": 133.058904,
        "lat": 35.463788,
        "url": null,
        "etc": ""
    },
    {
        "type": "kyakuseki",
        "name": "モスバーガー    宍道店",
        "address": "松江市宍道町佐々布207-14",
        "tell": "0852-66-3939",
        "lng": 132.901091,
        "lat": 35.405285,
        "url": null,
        "etc": ""
    },
    {
        "type": "kyakuseki",
        "name": "お食事処    福吉",
        "address": "松江市秋鹿町3287",
        "tell": "0852-88-2028",
        "lng": 132.953921,
        "lat": 35.475753,
        "url": null,
        "etc": ""
    },
    {
        "type": "kyakuseki",
        "name": "クロード洋菓子店",
        "address": "松江市上乃木7丁目10-6",
        "tell": "0852-26-7540",
        "lng": 133.066196,
        "lat": 35.444059,
        "url": null,
        "etc": ""
    },
    {
        "type": "kyakuseki",
        "name": "すき家    松江菅田店",
        "address": "松江市菅田町24-1",
        "tell": "050-3772-1567",
        "lng": 133.063456,
        "lat": 35.483989,
        "url": null,
        "etc": ""
    },
    {
        "type": "kyakuseki",
        "name": "モスバーガー    松江西川津店",
        "address": "松江市西川津町4236",
        "tell": "0852-27-7881",
        "lng": 133.072744,
        "lat": 35.480775,
        "url": null,
        "etc": ""
    },
    {
        "type": "kyakuseki",
        "name": "松江ニューアーバンホテル別館",
        "address": "松江市西茶町40-1",
        "tell": "0852-23-0003",
        "lng": 133.050641,
        "lat": 35.46864,
        "url": null,
        "etc": ""
    },
    {
        "type": "kyakuseki",
        "name": "松江ニューアーバンホテル  スカイビューキャンドル",
        "address": "松江市西茶町40-1",
        "tell": "0852-23-0003",
        "lng": 133.050641,
        "lat": 35.46864,
        "url": null,
        "etc": ""
    },
    {
        "type": "kyakuseki",
        "name": "めんふぁん食堂    西津田店",
        "address": "松江市西津田2-15-17",
        "tell": "0852-24-3022",
        "lng": 133.080492,
        "lat": 35.459983,
        "url": null,
        "etc": ""
    },
    {
        "type": "kyakuseki",
        "name": "ココス松江西津田店",
        "address": "松江市西津田3-1-2",
        "tell": "0852-59-5882",
        "lng": 133.076689,
        "lat": 35.459494,
        "url": null,
        "etc": ""
    },
    {
        "type": "kyakuseki",
        "name": "焼肉    オオグニ屋",
        "address": "松江市西津田3-2-5",
        "tell": "0852-59-2552",
        "lng": 133.078659,
        "lat": 35.459625,
        "url": null,
        "etc": ""
    },
    {
        "type": "kyakuseki",
        "name": "すき家    9号松江西津田店",
        "address": "松江市西津田5-1-11",
        "tell": "050-3772-1567",
        "lng": 133.070809,
        "lat": 35.459075,
        "url": null,
        "etc": ""
    },
    {
        "type": "kyakuseki",
        "name": "島根県市町村職員共済組合宿泊所    ホテル白鳥",
        "address": "松江市千鳥町20番地",
        "tell": "0852-21-6195",
        "lng": 133.046661,
        "lat": 35.46684,
        "url": null,
        "etc": ""
    },
    {
        "type": "kyakuseki",
        "name": "ホテル一畑    レストラン「カメーリア」",
        "address": "松江市千鳥町30",
        "tell": "0852-22-0188",
        "lng": 133.045322,
        "lat": 35.46627,
        "url": null,
        "etc": ""
    },
    {
        "type": "kyakuseki",
        "name": "ホテル一畑    宴会場",
        "address": "松江市千鳥町30",
        "tell": "0852-22-0188",
        "lng": 133.045322,
        "lat": 35.46627,
        "url": null,
        "etc": ""
    },
    {
        "type": "kyakuseki",
        "name": "たこ焼き・いか焼き・千鳥やきのお店    コムギ",
        "address": "松江市千鳥町83    COCOMATSUE1F",
        "tell": "090-9468-0244",
        "lng": 133.043467,
        "lat": 35.466159,
        "url": null,
        "etc": ""
    },
    {
        "type": "kyakuseki",
        "name": "清松庵    たちばな",
        "address": "松江市袖師町11-1",
        "tell": "0852-32-2345",
        "lng": 133.049603,
        "lat": 35.454264,
        "url": null,
        "etc": ""
    },
    {
        "type": "kyakuseki",
        "name": "ヴェッキオ.ロッソ",
        "address": "松江市袖師町1-5    島根県立美術館",
        "tell": "0852-31-2252",
        "lng": 133.052419,
        "lat": 35.459632,
        "url": null,
        "etc": ""
    },
    {
        "type": "kyakuseki",
        "name": "ガスト松江南店",
        "address": "松江市袖師町2-38",
        "tell": "0852-59-5260",
        "lng": 133.051755,
        "lat": 35.458199,
        "url": null,
        "etc": ""
    },
    {
        "type": "kyakuseki",
        "name": "松江フォーゲルパーク    レストランフローラ",
        "address": "松江市大垣町52",
        "tell": "0852-88-9800",
        "lng": 132.943983,
        "lat": 35.476383,
        "url": null,
        "etc": ""
    },
    {
        "type": "kyakuseki",
        "name": "松江フォーゲルパーク    そば亭不昧庵",
        "address": "松江市大垣町52",
        "tell": "0852-88-9800",
        "lng": 132.943983,
        "lat": 35.476383,
        "url": null,
        "etc": ""
    },
    {
        "type": "kyakuseki",
        "name": "cafe simai",
        "address": "松江市大庭町1274-16",
        "tell": "0852-26-1001",
        "lng": 133.062997,
        "lat": 35.432311,
        "url": null,
        "etc": ""
    },
    {
        "type": "kyakuseki",
        "name": "(有)後藤五八",
        "address": "松江市苧町2番地",
        "tell": "0852-21-5058",
        "lng": 133.048263,
        "lat": 35.469462,
        "url": null,
        "etc": ""
    },
    {
        "type": "kyakuseki",
        "name": "諸国お勝手料理    根っこ",
        "address": "松江市朝日町452",
        "tell": "0852-26-3855",
        "lng": 133.064071,
        "lat": 35.463294,
        "url": null,
        "etc": ""
    },
    {
        "type": "kyakuseki",
        "name": "N白木屋    松江南口駅前店",
        "address": "松江市朝日町469-2    駅南ビル 2階",
        "tell": "0852-25-1388",
        "lng": 133.06326,
        "lat": 35.463207,
        "url": null,
        "etc": ""
    },
    {
        "type": "kyakuseki",
        "name": "KOREAN RESTAURANT れんげ",
        "address": "松江市朝日町487-1",
        "tell": "0852-21-9406",
        "lng": 133.060982,
        "lat": 35.463035,
        "url": null,
        "etc": ""
    },
    {
        "type": "kyakuseki",
        "name": "麵屋    縁",
        "address": "松江市朝日町487-48",
        "tell": "080-1907-2345",
        "lng": 133.060163,
        "lat": 35.463177,
        "url": null,
        "etc": ""
    },
    {
        "type": "kyakuseki",
        "name": "龍馬    松江店",
        "address": "松江市朝日町493-1",
        "tell": "0852-25-0778",
        "lng": 133.060521,
        "lat": 35.464005,
        "url": null,
        "etc": ""
    },
    {
        "type": "kyakuseki",
        "name": "大阪新世界    山ちゃん    松江駅前店",
        "address": "松江市朝日町494-4",
        "tell": "0852-24-3929",
        "lng": 133.059974,
        "lat": 35.464102,
        "url": null,
        "etc": ""
    },
    {
        "type": "kyakuseki",
        "name": "松江エクセルホテル東急    レストランMOSORO",
        "address": "松江市朝日町590番地1F",
        "tell": "0852-27-0109",
        "lng": 133.06404,
        "lat": 35.465393,
        "url": null,
        "etc": ""
    },
    {
        "type": "kyakuseki",
        "name": "松江エクセルホテル東急    宴会場",
        "address": "松江市朝日町590番地2F",
        "tell": "0852-27-0109",
        "lng": 133.06404,
        "lat": 35.465393,
        "url": null,
        "etc": ""
    },
    {
        "type": "kyakuseki",
        "name": "グラッテ",
        "address": "松江市朝日町661    一畑百貨店1F",
        "tell": "0852-55-2530",
        "lng": 133.064515,
        "lat": 35.464513,
        "url": null,
        "etc": ""
    },
    {
        "type": "kyakuseki",
        "name": "G.R.kitchen",
        "address": "松江市朝日町661    一畑百貨店3F",
        "tell": null,
        "lng": 133.064515,
        "lat": 35.464513,
        "url": null,
        "etc": ""
    },
    {
        "type": "kyakuseki",
        "name": "ichibata DINING(イチバタダイニング)",
        "address": "松江市朝日町661    一畑百貨店6F",
        "tell": "0852-55-2979",
        "lng": 133.064515,
        "lat": 35.464513,
        "url": null,
        "etc": ""
    },
    {
        "type": "kyakuseki",
        "name": "そば処    一福    松江一畑店",
        "address": "松江市朝日町661    一畑百貨店6F",
        "tell": "0852-55-2564",
        "lng": 133.064515,
        "lat": 35.464513,
        "url": null,
        "etc": ""
    },
    {
        "type": "kyakuseki",
        "name": "はなの舞    シャミネ松江店",
        "address": "松江市朝日町字伊勢宮472-2    ごちそう広場味彩502号",
        "tell": "0852-60-2282",
        "lng": null,
        "lat": null,
        "url": null,
        "etc": "error"
    },
    {
        "type": "kyakuseki",
        "name": "Fooddiversity Kitchen",
        "address": "松江市津田町312-2",
        "tell": null,
        "lng": 133.066023,
        "lat": 35.460449,
        "url": null,
        "etc": ""
    },
    {
        "type": "kyakuseki",
        "name": "長浜ラーメン博多屋    松江店",
        "address": "松江市津田町328-1",
        "tell": "0852-25-7622",
        "lng": 133.065523,
        "lat": 35.459147,
        "url": null,
        "etc": ""
    },
    {
        "type": "kyakuseki",
        "name": "寺津屋",
        "address": "松江市天神町60-3",
        "tell": "0852-21-3480",
        "lng": 133.055969,
        "lat": 35.461285,
        "url": null,
        "etc": ""
    },
    {
        "type": "kyakuseki",
        "name": "パーネドーロ",
        "address": "松江市殿町158番地島根県民会館",
        "tell": "0852-22-5555",
        "lng": 133.052888,
        "lat": 35.472656,
        "url": null,
        "etc": ""
    },
    {
        "type": "kyakuseki",
        "name": "ろんぢん",
        "address": "松江市殿町267",
        "tell": "0852-22-3618",
        "lng": 133.053196,
        "lat": 35.474167,
        "url": null,
        "etc": ""
    },
    {
        "type": "kyakuseki",
        "name": "公立学校共済組合松江宿泊所（サンラポーむらくも）",
        "address": "松江市殿町369",
        "tell": "0852-21-2670",
        "lng": 133.054438,
        "lat": 35.47234,
        "url": null,
        "etc": ""
    },
    {
        "type": "kyakuseki",
        "name": "和風レストラン    ぼん",
        "address": "松江市殿町8番地    タウンプラザしまね1F",
        "tell": "0852-28-8128",
        "lng": 133.051127,
        "lat": 35.470473,
        "url": null,
        "etc": ""
    },
    {
        "type": "kyakuseki",
        "name": "焼肉屋大平門    田和山店",
        "address": "松江市田和山町104",
        "tell": "0852-60-7333",
        "lng": 133.053536,
        "lat": 35.441223,
        "url": null,
        "etc": ""
    },
    {
        "type": "kyakuseki",
        "name": "カフェモルフォ",
        "address": "松江市田和山町117",
        "tell": "0852-32-7377",
        "lng": 133.053759,
        "lat": 35.440624,
        "url": null,
        "etc": ""
    },
    {
        "type": "kyakuseki",
        "name": "カレーハウスCoCo壱番屋    松江田和山店",
        "address": "松江市田和山町24",
        "tell": "0852-27-5518",
        "lng": 133.049584,
        "lat": 35.438304,
        "url": null,
        "etc": ""
    },
    {
        "type": "kyakuseki",
        "name": "民宿    なかよし",
        "address": "松江市島根町野波2281",
        "tell": "0852-85-3150",
        "lng": 133.097115,
        "lat": 35.587149,
        "url": null,
        "etc": ""
    },
    {
        "type": "kyakuseki",
        "name": "モスバーガー    東出雲アイパルテ店",
        "address": "松江市東出雲町錦新町8-1-3",
        "tell": "0852-53-0535",
        "lng": 133.141965,
        "lat": 35.432581,
        "url": null,
        "etc": ""
    },
    {
        "type": "kyakuseki",
        "name": "めんふぁん食堂    東出雲店",
        "address": "松江市東出雲町出雲郷808-1",
        "tell": "0852-52-7708",
        "lng": 133.136948,
        "lat": 35.428656,
        "url": null,
        "etc": ""
    },
    {
        "type": "kyakuseki",
        "name": "ほっかほっか亭東出雲店",
        "address": "松江市東出雲町揖屋421-1",
        "tell": "0852-53-0331",
        "lng": 133.141561,
        "lat": 35.426778,
        "url": null,
        "etc": ""
    },
    {
        "type": "kyakuseki",
        "name": "ガスト東出雲店",
        "address": "松江市東出雲町揖屋藤木665-14",
        "tell": "0852-53-0361",
        "lng": null,
        "lat": null,
        "url": null,
        "etc": "error"
    },
    {
        "type": "kyakuseki",
        "name": "Cafe Terrasse LinQ",
        "address": "松江市東朝日町123-7ヨネザワ写真館2F",
        "tell": "0852-67-3428",
        "lng": 133.067226,
        "lat": 35.464099,
        "url": null,
        "etc": ""
    },
    {
        "type": "kyakuseki",
        "name": "すき家    イオン松江店",
        "address": "松江市東朝日町151",
        "tell": "050-3772-1567",
        "lng": 133.069492,
        "lat": 35.463977,
        "url": null,
        "etc": ""
    },
    {
        "type": "kyakuseki",
        "name": "山陰炭焼ごっつぉ酒場    善次郎",
        "address": "松江市東朝日町461-1 ホテルα-1第2松江 1階",
        "tell": "0852-26-7100",
        "lng": null,
        "lat": null,
        "url": null,
        "etc": "error"
    },
    {
        "type": "kyakuseki",
        "name": "味道園",
        "address": "松江市東朝日町78-7",
        "tell": "0852-28-1000",
        "lng": 133.067765,
        "lat": 35.462471,
        "url": null,
        "etc": ""
    },
    {
        "type": "kyakuseki",
        "name": "ラーメン    にいはお",
        "address": "松江市東津田町467-9",
        "tell": "0852-22-7700",
        "lng": 133.083503,
        "lat": 35.458769,
        "url": null,
        "etc": ""
    },
    {
        "type": "kyakuseki",
        "name": "牛豚馬鶏    松江店",
        "address": "松江市東本町1-45",
        "tell": "0852-23-1010",
        "lng": 133.056549,
        "lat": 35.469346,
        "url": null,
        "etc": ""
    },
    {
        "type": "kyakuseki",
        "name": "かどや",
        "address": "松江市東本町1丁目78青山ビル1F",
        "tell": "0852-27-5752",
        "lng": 133.056285,
        "lat": 35.46982,
        "url": null,
        "etc": ""
    },
    {
        "type": "kyakuseki",
        "name": "こくてーる河",
        "address": "松江市東本町1丁目87番地",
        "tell": "0852-21-1820",
        "lng": 133.055493,
        "lat": 35.469807,
        "url": null,
        "etc": ""
    },
    {
        "type": "kyakuseki",
        "name": "大衆割烹    なわのれん",
        "address": "松江市東本町2-16",
        "tell": "0852-27-7800",
        "lng": 133.056804,
        "lat": 35.469007,
        "url": null,
        "etc": ""
    },
    {
        "type": "kyakuseki",
        "name": "パスタで食堂",
        "address": "松江市灘町63-7",
        "tell": "0852-28-8891",
        "lng": 133.054146,
        "lat": 35.463265,
        "url": null,
        "etc": ""
    },
    {
        "type": "kyakuseki",
        "name": "モスバーガー    松江乃白店",
        "address": "松江市乃白町501",
        "tell": "0852-27-5886",
        "lng": 133.050206,
        "lat": 35.435932,
        "url": null,
        "etc": ""
    },
    {
        "type": "kyakuseki",
        "name": "寺子屋カフェ    LAB    KITCHEN",
        "address": "松江市白潟本町43",
        "tell": "0852-27-7515",
        "lng": 133.056071,
        "lat": 35.465185,
        "url": null,
        "etc": ""
    },
    {
        "type": "kyakuseki",
        "name": "東岩坂珈琲店",
        "address": "松江市八雲町東岩坂2-1",
        "tell": "0852-61-8988",
        "lng": 133.095875,
        "lat": 35.413474,
        "url": null,
        "etc": ""
    },
    {
        "type": "kyakuseki",
        "name": "味処・民宿    まつや",
        "address": "松江市美保関町森山716",
        "tell": "0852-72-2327",
        "lng": 133.229875,
        "lat": 35.550793,
        "url": null,
        "etc": ""
    },
    {
        "type": "kyakuseki",
        "name": "福間館",
        "address": "松江市美保関町美保関586番地",
        "tell": "0852-73-0011",
        "lng": 133.307674,
        "lat": 35.562435,
        "url": null,
        "etc": ""
    },
    {
        "type": "kyakuseki",
        "name": "手造りうどんたまき    浜乃木店",
        "address": "松江市浜乃木2-3-35",
        "tell": "0852-27-6600",
        "lng": 133.055447,
        "lat": 35.447567,
        "url": null,
        "etc": ""
    },
    {
        "type": "kyakuseki",
        "name": "コメダ珈琲店    松江浜乃木店",
        "address": "松江市浜乃木2丁目1-34",
        "tell": "0852-60-2040",
        "lng": 133.053564,
        "lat": 35.447528,
        "url": null,
        "etc": ""
    },
    {
        "type": "kyakuseki",
        "name": "めんふぁん食堂    浜乃木店",
        "address": "松江市浜乃木3-1-25",
        "tell": "0852-23-1170",
        "lng": 133.047806,
        "lat": 35.443904,
        "url": null,
        "etc": ""
    },
    {
        "type": "kyakuseki",
        "name": "アリカフェ    浜乃木店",
        "address": "松江市浜乃木6丁目1-32",
        "tell": "0852-27-7890",
        "lng": 133.056005,
        "lat": 35.445334,
        "url": null,
        "etc": ""
    },
    {
        "type": "kyakuseki",
        "name": "ばいかも",
        "address": "松江市片原町60-2",
        "tell": "0852-24-1999",
        "lng": 133.05036,
        "lat": 35.469923,
        "url": null,
        "etc": ""
    },
    {
        "type": "kyakuseki",
        "name": "リビドー洋菓子店    松江店",
        "address": "松江市母衣町180-24",
        "tell": "0852-26-5331",
        "lng": 133.056943,
        "lat": 35.47332,
        "url": null,
        "etc": ""
    },
    {
        "type": "kyakuseki",
        "name": "から好し松江北田町店",
        "address": "松江市北田町267-3",
        "tell": "0852-60-2502",
        "lng": 133.063984,
        "lat": 35.475879,
        "url": null,
        "etc": ""
    },
    {
        "type": "kyakuseki",
        "name": "はま寿司    松江本郷店",
        "address": "松江市本郷町2番26号",
        "tell": "0852-24-8180",
        "lng": 133.060788,
        "lat": 35.460624,
        "url": null,
        "etc": ""
    },
    {
        "type": "kyakuseki",
        "name": "和創ダイニング蒼の音",
        "address": "松江市末次本町110",
        "tell": "0852-67-6228",
        "lng": 133.054502,
        "lat": 35.469615,
        "url": null,
        "etc": ""
    },
    {
        "type": "kyakuseki",
        "name": "（有)松江皆美館",
        "address": "松江市末次本町14",
        "tell": "0852-21-5131",
        "lng": 133.054116,
        "lat": 35.468765,
        "url": null,
        "etc": ""
    },
    {
        "type": "kyakuseki",
        "name": "味処なにわ本店",
        "address": "松江市末次本町21番地",
        "tell": "0852-21-2835",
        "lng": 133.054541,
        "lat": 35.468576,
        "url": null,
        "etc": ""
    },
    {
        "type": "kyakuseki",
        "name": "大橋館",
        "address": "松江市末次本町40",
        "tell": "0852-21-5168",
        "lng": 133.05549,
        "lat": 35.468612,
        "url": null,
        "etc": ""
    },
    {
        "type": "kyakuseki",
        "name": "味処    もと家",
        "address": "松江市末次本町47",
        "tell": "0852-32-0268",
        "lng": 133.055343,
        "lat": 35.469118,
        "url": null,
        "etc": ""
    },
    {
        "type": "kyakuseki",
        "name": "食酒処    かわばた",
        "address": "松江市末次本町80",
        "tell": "0852-28-5885",
        "lng": 133.054299,
        "lat": 35.469348,
        "url": null,
        "etc": ""
    },
    {
        "type": "kyakuseki",
        "name": "姫のそば    ゆかり庵",
        "address": "仁多郡奥出雲町稲原2128-1",
        "tell": "0854-52-2560",
        "lng": 133.106507,
        "lat": 35.168162,
        "url": null,
        "etc": ""
    },
    {
        "type": "kyakuseki",
        "name": "きっちん焚菜",
        "address": "仁多郡奥出雲町横田1017-8",
        "tell": "0854-52-2299",
        "lng": 133.092738,
        "lat": 35.177885,
        "url": null,
        "etc": ""
    },
    {
        "type": "kyakuseki",
        "name": "浪花旅館",
        "address": "仁多郡奥出雲町横田1024-3",
        "tell": "0854-52-1014",
        "lng": 133.09201,
        "lat": 35.178058,
        "url": null,
        "etc": ""
    },
    {
        "type": "kyakuseki",
        "name": "横田手打ちそば    あさひ亭",
        "address": "仁多郡奥出雲町横田1028-4",
        "tell": "0854-52-1714",
        "lng": 133.092866,
        "lat": 35.178024,
        "url": null,
        "etc": ""
    },
    {
        "type": "kyakuseki",
        "name": "佳肴",
        "address": "仁多郡奥出雲町横田1094",
        "tell": "0854-52-1026",
        "lng": 133.094632,
        "lat": 35.179694,
        "url": null,
        "etc": ""
    },
    {
        "type": "kyakuseki",
        "name": "バーガーハウスピコピコ",
        "address": "仁多郡奥出雲町横田1097",
        "tell": "0854-52-2578",
        "lng": 133.094844,
        "lat": 35.178949,
        "url": null,
        "etc": ""
    },
    {
        "type": "kyakuseki",
        "name": "お食事処    中国料理    直久",
        "address": "仁多郡奥出雲町横田1101-7",
        "tell": "0854-52-1518",
        "lng": 133.095171,
        "lat": 35.179635,
        "url": null,
        "etc": ""
    },
    {
        "type": "kyakuseki",
        "name": "久乃家",
        "address": "仁多郡奥出雲町横田1122-3",
        "tell": "0854-52-1665",
        "lng": 133.098102,
        "lat": 35.179574,
        "url": null,
        "etc": ""
    },
    {
        "type": "kyakuseki",
        "name": "福屋旅館（鐵池）",
        "address": "仁多郡奥出雲町横田945-1",
        "tell": "0854-52-1043",
        "lng": 133.090886,
        "lat": 35.178655,
        "url": null,
        "etc": ""
    },
    {
        "type": "kyakuseki",
        "name": "居酒屋    ちさと",
        "address": "仁多郡奥出雲町下阿井3001番地",
        "tell": "0854-56-0855",
        "lng": null,
        "lat": null,
        "url": null,
        "etc": "error"
    },
    {
        "type": "kyakuseki",
        "name": "田中屋旅館",
        "address": "仁多郡奥出雲町下横田449",
        "tell": "0854-52-0230",
        "lng": 133.083959,
        "lat": 35.158118,
        "url": null,
        "etc": ""
    },
    {
        "type": "kyakuseki",
        "name": "純そば一風庵",
        "address": "仁多郡奥出雲町下横田89-2",
        "tell": "0854-52-9870",
        "lng": 133.086614,
        "lat": 35.174294,
        "url": null,
        "etc": ""
    },
    {
        "type": "kyakuseki",
        "name": "奥出雲屋",
        "address": "仁多郡奥出雲町下横田89-4",
        "tell": "0854-52-2468",
        "lng": 133.087289,
        "lat": 35.17465,
        "url": null,
        "etc": ""
    },
    {
        "type": "kyakuseki",
        "name": "味処    玉峰",
        "address": "仁多郡奥出雲町亀嵩2268-2",
        "tell": "0854-57-0102",
        "lng": 133.066849,
        "lat": 35.2158,
        "url": null,
        "etc": ""
    },
    {
        "type": "kyakuseki",
        "name": "亀嵩温泉    玉峰山荘    レストラン欅",
        "address": "仁多郡奥出雲町亀嵩3609-1",
        "tell": "0854-57-0800",
        "lng": 133.085706,
        "lat": 35.223735,
        "url": null,
        "etc": ""
    },
    {
        "type": "kyakuseki",
        "name": "木次線亀嵩駅扇屋",
        "address": "仁多郡奥出雲町郡340",
        "tell": "0854-57-0034",
        "lng": 133.052684,
        "lat": 35.206401,
        "url": null,
        "etc": ""
    },
    {
        "type": "kyakuseki",
        "name": "佐白温泉長者の湯",
        "address": "仁多郡奥出雲町佐白223-5",
        "tell": "0854-54-0203",
        "lng": 132.986111,
        "lat": 35.232612,
        "url": null,
        "etc": ""
    },
    {
        "type": "kyakuseki",
        "name": "まいもんや居酒屋    味奈里",
        "address": "仁多郡奥出雲町三成260",
        "tell": "0854-54-1076",
        "lng": 133.000962,
        "lat": 35.198932,
        "url": null,
        "etc": ""
    },
    {
        "type": "kyakuseki",
        "name": "吾妻そば",
        "address": "仁多郡奥出雲町三成409-5",
        "tell": "0854-54-0219",
        "lng": 133.004537,
        "lat": 35.197979,
        "url": null,
        "etc": ""
    },
    {
        "type": "kyakuseki",
        "name": "喜久寿し",
        "address": "仁多郡奥出雲町三成428-1",
        "tell": "0854-54-0460",
        "lng": 133.005862,
        "lat": 35.196688,
        "url": null,
        "etc": ""
    },
    {
        "type": "kyakuseki",
        "name": "奥出雲町サイクリングターミナル仁多米食堂",
        "address": "仁多郡奥出雲町三成558番地6",
        "tell": "0854-54-2100",
        "lng": 133.011847,
        "lat": 35.195074,
        "url": null,
        "etc": ""
    },
    {
        "type": "kyakuseki",
        "name": "割烹    川芳",
        "address": "仁多郡奥出雲町三成664-1",
        "tell": "0854-54-1067",
        "lng": 133.008608,
        "lat": 35.196927,
        "url": null,
        "etc": ""
    },
    {
        "type": "kyakuseki",
        "name": "いやしの郷骨董カフェこめや",
        "address": "仁多郡奥出雲町上阿井735-4",
        "tell": "0854-56-0301",
        "lng": 132.904349,
        "lat": 35.147338,
        "url": null,
        "etc": ""
    },
    {
        "type": "kyakuseki",
        "name": "山県そば",
        "address": "仁多郡奥出雲町大呂５１５",
        "tell": "0854-52-1149",
        "lng": 133.128754,
        "lat": 35.192748,
        "url": null,
        "etc": ""
    },
    {
        "type": "kyakuseki",
        "name": "斐乃上荘",
        "address": "仁多郡奥出雲町竹崎1843-2",
        "tell": "0854-52-0234",
        "lng": 133.177528,
        "lat": 35.186869,
        "url": null,
        "etc": ""
    },
    {
        "type": "kyakuseki",
        "name": "かたくりの里    民宿たなべ",
        "address": "仁多郡奥出雲町竹崎1844-40",
        "tell": "0854-52-0930",
        "lng": 133.176786,
        "lat": 35.18325,
        "url": null,
        "etc": ""
    },
    {
        "type": "kyakuseki",
        "name": "たたらのいえ",
        "address": "仁多郡奥出雲町竹崎878",
        "tell": "0854-52-0063",
        "lng": 133.157658,
        "lat": 35.178378,
        "url": null,
        "etc": ""
    },
    {
        "type": "kyakuseki",
        "name": "道の駅奥出雲おろちループ",
        "address": "仁多郡奥出雲町八川2500-294",
        "tell": "0854-52-3111",
        "lng": 133.127842,
        "lat": 35.096004,
        "url": null,
        "etc": ""
    },
    {
        "type": "kyakuseki",
        "name": "八川そば",
        "address": "仁多郡奥出雲町八川99-1",
        "tell": "0854-52-1513",
        "lng": 133.089512,
        "lat": 35.148947,
        "url": null,
        "etc": ""
    },
    {
        "type": "kyakuseki",
        "name": "カフェ・内蔵丞",
        "address": "大田市温泉津町温泉津7番地",
        "tell": "0855-65-4126",
        "lng": 132.347337,
        "lat": 35.095872,
        "url": null,
        "etc": ""
    },
    {
        "type": "kyakuseki",
        "name": "Café＆Bar    路庵",
        "address": "大田市温泉津町温泉津ロ31",
        "tell": "0855-65-2777",
        "lng": 132.347015,
        "lat": 35.095416,
        "url": null,
        "etc": ""
    },
    {
        "type": "kyakuseki",
        "name": "むさ志食堂",
        "address": "大田市久手町刺鹿1910-2",
        "tell": "0854-82-8678",
        "lng": 132.515814,
        "lat": 35.223994,
        "url": null,
        "etc": ""
    },
    {
        "type": "kyakuseki",
        "name": "風風ラーメン大田店",
        "address": "大田市久手町刺鹿315-1",
        "tell": "0854-82-2299",
        "lng": 132.503537,
        "lat": 35.208771,
        "url": null,
        "etc": ""
    },
    {
        "type": "kyakuseki",
        "name": "(株)さんべ開発公社    国民宿舎さんべ荘",
        "address": "大田市三瓶町志学2072-1",
        "tell": "0854-83-2011",
        "lng": 132.623669,
        "lat": 35.11556,
        "url": null,
        "etc": ""
    },
    {
        "type": "kyakuseki",
        "name": "湯迫温泉旅館",
        "address": "大田市仁摩町天河内853",
        "tell": "0854-88-2558",
        "lng": 132.409586,
        "lat": 35.141523,
        "url": null,
        "etc": ""
    },
    {
        "type": "kyakuseki",
        "name": "STAY＆CAFE    WAMOTO",
        "address": "大田市静間町287-1",
        "tell": "0854-86-8968",
        "lng": 132.468998,
        "lat": 35.214564,
        "url": null,
        "etc": ""
    },
    {
        "type": "kyakuseki",
        "name": "ちいさなお宿    泉弘坊",
        "address": "大田市川合町川合1192",
        "tell": "0854-82-1038",
        "lng": 132.50815,
        "lat": 35.153519,
        "url": null,
        "etc": ""
    },
    {
        "type": "kyakuseki",
        "name": "世界遺産    石見銀山のホテル    ゆずりは",
        "address": "大田市大森町ニ3-1",
        "tell": "0854-89-0430",
        "lng": 132.442753,
        "lat": 35.112754,
        "url": null,
        "etc": ""
    },
    {
        "type": "kyakuseki",
        "name": "天霧    大田店",
        "address": "大田市大田町大田イ2756-9",
        "tell": "0854-82-0070",
        "lng": 132.502354,
        "lat": 35.205393,
        "url": null,
        "etc": ""
    },
    {
        "type": "kyakuseki",
        "name": "さかい珈琲    大田店",
        "address": "大田市大田町大田イ2756-9",
        "tell": "0854-86-8808",
        "lng": 132.502354,
        "lat": 35.205393,
        "url": null,
        "etc": ""
    },
    {
        "type": "kyakuseki",
        "name": "京都らーめん    とりの助",
        "address": "大田市大田町大田イ2756-9",
        "tell": "0854-86-7788",
        "lng": 132.502354,
        "lat": 35.205393,
        "url": null,
        "etc": ""
    },
    {
        "type": "kyakuseki",
        "name": "日本料理はたの",
        "address": "大田市大田町大田イ313-13",
        "tell": "0854-82-8677",
        "lng": 132.503159,
        "lat": 35.196633,
        "url": null,
        "etc": ""
    },
    {
        "type": "kyakuseki",
        "name": "大田市ゲストハウス雪見院",
        "address": "大田市大田町大田イ378-14",
        "tell": "0854-86-7100",
        "lng": 132.506889,
        "lat": 35.190453,
        "url": null,
        "etc": ""
    },
    {
        "type": "kyakuseki",
        "name": "（有）大田市農林福祉会館",
        "address": "大田市大田町大田ロ1329-8",
        "tell": "0854-82-1307",
        "lng": 132.499637,
        "lat": 35.19147,
        "url": null,
        "etc": ""
    },
    {
        "type": "kyakuseki",
        "name": "春光園",
        "address": "大田市大田町大田ロ947-16",
        "tell": "0854-82-0241",
        "lng": 132.505153,
        "lat": 35.192739,
        "url": null,
        "etc": ""
    },
    {
        "type": "kyakuseki",
        "name": "焼肉屋    さかい大田店",
        "address": "大田市長久町長久ロ175-4",
        "tell": "0854-84-0329",
        "lng": 132.489813,
        "lat": 35.198533,
        "url": null,
        "etc": ""
    },
    {
        "type": "kyakuseki",
        "name": "すき家    9号大田店",
        "address": "大田市長久町土江103-3",
        "tell": "050-3772-1567",
        "lng": 132.480244,
        "lat": 35.196861,
        "url": null,
        "etc": ""
    },
    {
        "type": "kyakuseki",
        "name": "ガスト島根大田店",
        "address": "大田市長久町土江97",
        "tell": "0854-84-0030",
        "lng": 132.48095,
        "lat": 35.197597,
        "url": null,
        "etc": ""
    },
    {
        "type": "kyakuseki",
        "name": "（有）水明館",
        "address": "大田市波根町1336-1",
        "tell": "0854-85-7358",
        "lng": 132.52639,
        "lat": 35.241151,
        "url": null,
        "etc": ""
    },
    {
        "type": "kyakuseki",
        "name": "Seasons′Dining    暖DAN",
        "address": "大田市波根町1338-1",
        "tell": "0854-85-7387",
        "lng": 132.52652,
        "lat": 35.24119,
        "url": null,
        "etc": ""
    },
    {
        "type": "kyakuseki",
        "name": "金子旅館",
        "address": "大田市波根町1345",
        "tell": "0854-85-7130",
        "lng": 132.527293,
        "lat": 35.241745,
        "url": null,
        "etc": ""
    },
    {
        "type": "kyakuseki",
        "name": "寿司焼肉    しのぶ",
        "address": "飯石郡飯南町佐見969-3",
        "tell": "0854-72-0032",
        "lng": 132.752647,
        "lat": 35.058342,
        "url": null,
        "etc": ""
    },
    {
        "type": "kyakuseki",
        "name": "奥出雲そば処    一福",
        "address": "飯石郡飯南町佐見977",
        "tell": "0854-72-0277",
        "lng": 132.752081,
        "lat": 35.058117,
        "url": null,
        "etc": ""
    },
    {
        "type": "kyakuseki",
        "name": "ステーキハウス    萌美野",
        "address": "飯石郡飯南町上赤名1664番地",
        "tell": "0854-76-2983",
        "lng": 132.715041,
        "lat": 34.996876,
        "url": null,
        "etc": ""
    },
    {
        "type": "kyakuseki",
        "name": "カフェhandmade雑貨    ステッチ",
        "address": "飯石郡飯南町上来島1038-2",
        "tell": "080-8239-0735",
        "lng": null,
        "lat": null,
        "url": null,
        "etc": "error"
    },
    {
        "type": "kyakuseki",
        "name": "居酒屋ぐでんぐでん",
        "address": "飯石郡飯南町野萱807-7",
        "tell": "0854-76-3463",
        "lng": 132.742801,
        "lat": 35.036964,
        "url": null,
        "etc": ""
    },
    {
        "type": "kyakuseki",
        "name": "しろつの荘    別館",
        "address": "浜田市旭町木田949",
        "tell": "0855-45-0255",
        "lng": 132.264398,
        "lat": 34.885164,
        "url": null,
        "etc": ""
    },
    {
        "type": "kyakuseki",
        "name": "すっぽん処",
        "address": "浜田市旭町木田993-7",
        "tell": "0855-45-0392",
        "lng": 132.264815,
        "lat": 34.886069,
        "url": null,
        "etc": ""
    },
    {
        "type": "kyakuseki",
        "name": "らーめん善",
        "address": "浜田市下有福町399-1",
        "tell": "0855-28-1662",
        "lng": 132.185782,
        "lat": 34.944666,
        "url": null,
        "etc": ""
    },
    {
        "type": "kyakuseki",
        "name": "アクアス･ミュージアム喫茶コーナー",
        "address": "浜田市久代町1117-2",
        "tell": "0855-28-1811",
        "lng": 132.144593,
        "lat": 34.959452,
        "url": null,
        "etc": ""
    },
    {
        "type": "kyakuseki",
        "name": "かなぎウエスタンライディングパーク",
        "address": "浜田市金城町久佐イ1390-8",
        "tell": "0855-42-2222",
        "lng": 132.206595,
        "lat": 34.868684,
        "url": null,
        "etc": ""
    },
    {
        "type": "kyakuseki",
        "name": "食事処    スマイル",
        "address": "浜田市金城町七条ハ371-1",
        "tell": "0855-42-0678",
        "lng": 132.147256,
        "lat": 34.870795,
        "url": null,
        "etc": ""
    },
    {
        "type": "kyakuseki",
        "name": "美又温泉とらや旅館",
        "address": "浜田市金城町追原11-甲",
        "tell": "0855-42-1550",
        "lng": 132.239197,
        "lat": 34.895326,
        "url": null,
        "etc": ""
    },
    {
        "type": "kyakuseki",
        "name": "イタリア料理    オリゾンテ",
        "address": "浜田市原井町1203-1",
        "tell": "0855-23-8006",
        "lng": 132.07124,
        "lat": 34.889233,
        "url": null,
        "etc": ""
    },
    {
        "type": "kyakuseki",
        "name": "有限会社    鈴蘭別館",
        "address": "浜田市港町186番地5",
        "tell": "0855-22-2381",
        "lng": 132.067757,
        "lat": 34.897657,
        "url": null,
        "etc": ""
    },
    {
        "type": "kyakuseki",
        "name": "小旬",
        "address": "浜田市黒川町127-1",
        "tell": "0855-28-7270",
        "lng": 132.092015,
        "lat": 34.900355,
        "url": null,
        "etc": ""
    },
    {
        "type": "kyakuseki",
        "name": "三代目網元    魚鮮水産    浜田駅前店",
        "address": "浜田市黒川町4180    ハラビル1階",
        "tell": "0855-25-2577",
        "lng": 132.089385,
        "lat": 34.901438,
        "url": null,
        "etc": ""
    },
    {
        "type": "kyakuseki",
        "name": "ホテル松尾",
        "address": "浜田市黒川町4185",
        "tell": "0855-22-2520",
        "lng": 132.089615,
        "lat": 34.901574,
        "url": null,
        "etc": ""
    },
    {
        "type": "kyakuseki",
        "name": "玉鮨",
        "address": "浜田市黒川町4210",
        "tell": "0855-23-2676",
        "lng": 132.089724,
        "lat": 34.90068,
        "url": null,
        "etc": ""
    },
    {
        "type": "kyakuseki",
        "name": "小料理    恵",
        "address": "浜田市紺屋町24-2",
        "tell": "0855-23-2783",
        "lng": 132.080178,
        "lat": 34.897983,
        "url": null,
        "etc": ""
    },
    {
        "type": "kyakuseki",
        "name": "定食ダイニング    めし房",
        "address": "浜田市紺屋町70-1",
        "tell": "0855-28-7500",
        "lng": 132.081691,
        "lat": 34.898013,
        "url": null,
        "etc": ""
    },
    {
        "type": "kyakuseki",
        "name": "一期一会",
        "address": "浜田市三隅町三隅1329",
        "tell": "0855-32-0551",
        "lng": 131.964124,
        "lat": 34.776679,
        "url": null,
        "etc": ""
    },
    {
        "type": "kyakuseki",
        "name": "昭和処いっぱい一杯",
        "address": "浜田市新町15-2",
        "tell": "0855-25-5118",
        "lng": 132.078331,
        "lat": 34.897485,
        "url": null,
        "etc": ""
    },
    {
        "type": "kyakuseki",
        "name": "ジョイプラザ",
        "address": "浜田市真光町88番地1",
        "tell": "0855-22-1150",
        "lng": 132.076264,
        "lat": 34.895238,
        "url": null,
        "etc": ""
    },
    {
        "type": "kyakuseki",
        "name": "和風スナック宮川",
        "address": "浜田市杉戸町2595番地",
        "tell": "0855-22-1818",
        "lng": 132.083422,
        "lat": 34.897608,
        "url": null,
        "etc": ""
    },
    {
        "type": "kyakuseki",
        "name": "遊食処がしんたれ",
        "address": "浜田市浅井町102-20",
        "tell": "0855-23-0827",
        "lng": 132.091684,
        "lat": 34.90278,
        "url": null,
        "etc": ""
    },
    {
        "type": "kyakuseki",
        "name": "目利きの銀次    浜田南口駅前店",
        "address": "浜田市浅井町1563    MORISUビル 1階",
        "tell": "0855-22-4988",
        "lng": 132.089329,
        "lat": 34.901891,
        "url": null,
        "etc": ""
    },
    {
        "type": "kyakuseki",
        "name": "魚民    浜田南口駅前店",
        "address": "浜田市浅井町1563    MORISUビル 2階",
        "tell": "0855-22-0988",
        "lng": 132.089329,
        "lat": 34.901891,
        "url": null,
        "etc": ""
    },
    {
        "type": "kyakuseki",
        "name": "炉端かば浜田店",
        "address": "浜田市浅井町86-34",
        "tell": "0855-22-2233",
        "lng": 132.090951,
        "lat": 34.902694,
        "url": null,
        "etc": ""
    },
    {
        "type": "kyakuseki",
        "name": "カフェ・ミシェル",
        "address": "浜田市相生町1411-5",
        "tell": "0855-23-6422",
        "lng": 132.093626,
        "lat": 34.898297,
        "url": null,
        "etc": ""
    },
    {
        "type": "kyakuseki",
        "name": "割烹居酒屋    木楽",
        "address": "浜田市相生町3845",
        "tell": "0855-25-5715",
        "lng": 132.09241,
        "lat": 34.896697,
        "url": null,
        "etc": ""
    },
    {
        "type": "kyakuseki",
        "name": "七輪焼肉    炭乃家",
        "address": "浜田市相生町3923-2",
        "tell": "0855-23-5757",
        "lng": 132.093987,
        "lat": 34.896641,
        "url": null,
        "etc": ""
    },
    {
        "type": "kyakuseki",
        "name": "自然食ビュッフェ菜の華",
        "address": "浜田市朝日町109-2",
        "tell": "0855-23-0238",
        "lng": 132.090407,
        "lat": 34.897872,
        "url": null,
        "etc": ""
    },
    {
        "type": "kyakuseki",
        "name": "coffee shop KEN",
        "address": "浜田市長沢町166    森田ビル1F",
        "tell": "0855-23-2880",
        "lng": 132.100961,
        "lat": 34.906704,
        "url": null,
        "etc": ""
    },
    {
        "type": "kyakuseki",
        "name": "海鮮焼き    浜心",
        "address": "浜田市殿町83-124    浜田ニューキャッスルホテル１階",
        "tell": "0855-25-1211",
        "lng": 132.076797,
        "lat": 34.899666,
        "url": null,
        "etc": ""
    },
    {
        "type": "kyakuseki",
        "name": "浜田ニューキャッスルホテル    宴会場",
        "address": "浜田市殿町83番地124",
        "tell": "0855-23-5880",
        "lng": 132.076797,
        "lat": 34.899666,
        "url": null,
        "etc": ""
    },
    {
        "type": "kyakuseki",
        "name": "手造りうどんたまき    浜田店",
        "address": "浜田市田町1449-1",
        "tell": "0855-25-5166",
        "lng": 132.084574,
        "lat": 34.90223,
        "url": null,
        "etc": ""
    },
    {
        "type": "kyakuseki",
        "name": "すき家    9号浜田店",
        "address": "浜田市熱田町1418-1",
        "tell": "050-3772-1567",
        "lng": 132.051359,
        "lat": 34.868321,
        "url": null,
        "etc": ""
    },
    {
        "type": "kyakuseki",
        "name": "有限会社    たこ初食堂",
        "address": "浜田市片庭町56",
        "tell": "0855-22-0003",
        "lng": 132.075875,
        "lat": 34.897238,
        "url": null,
        "etc": ""
    },
    {
        "type": "kyakuseki",
        "name": "株式会社オープンハート    フェリーチェ",
        "address": "浜田市野原町1862-7",
        "tell": "0855-23-0050",
        "lng": 132.07502,
        "lat": 34.889822,
        "url": null,
        "etc": ""
    },
    {
        "type": "kyakuseki",
        "name": "レストラン    いんふぉ",
        "address": "邑智郡川本町大字因原505-5",
        "tell": "0855-72-1111",
        "lng": 132.472989,
        "lat": 34.966,
        "url": null,
        "etc": ""
    },
    {
        "type": "kyakuseki",
        "name": "とんねる",
        "address": "邑智郡美郷町久保54-1",
        "tell": "0855-75-1536",
        "lng": 132.594867,
        "lat": 35.072308,
        "url": null,
        "etc": ""
    },
    {
        "type": "kyakuseki",
        "name": "ジョイワークみさと(そら豆）",
        "address": "邑智郡美郷町久保740番地7",
        "tell": "0855-74-6033",
        "lng": 132.593042,
        "lat": 35.071219,
        "url": null,
        "etc": ""
    },
    {
        "type": "kyakuseki",
        "name": "亀遊亭",
        "address": "邑智郡美郷町粕渕340",
        "tell": "0855-75-1245",
        "lng": 132.589031,
        "lat": 35.073777,
        "url": null,
        "etc": ""
    },
    {
        "type": "kyakuseki",
        "name": "石楠花",
        "address": "邑智郡美郷町粕渕57-1",
        "tell": "0855-74-6010",
        "lng": 132.591537,
        "lat": 35.079479,
        "url": null,
        "etc": ""
    },
    {
        "type": "kyakuseki",
        "name": "スナックあんびす",
        "address": "邑智郡美郷町粕渕80-6",
        "tell": "0855-75-0308",
        "lng": 132.587576,
        "lat": 35.076921,
        "url": null,
        "etc": ""
    },
    {
        "type": "kyakuseki",
        "name": "ビストロ    よねくら",
        "address": "邑智郡邑南町下田所680番地",
        "tell": "0855-83-0670",
        "lng": 132.511018,
        "lat": 34.846175,
        "url": null,
        "etc": ""
    }
]