[
    {
        "name": "焼肉酒家さくら亭",
        "type": "客席飲食施設",
        "lat": 35.298534,
        "lng": 132.890481,
        "url": "test",
        "tell": "0854-45-2110",
        "address": "雲南市三刀屋町下熊谷1749-3"
    },
    {
        "name": "旬菜酒房うさぎ組",
        "type": "客席飲食施設",
        "lat": 35.301451,
        "lng": 132.891847,
        "url": "test",
        "tell": "0854-45-5800",
        "address": "雲南市三刀屋町給下1586-1"
    },
    {
        "name": "峯寺遊山荘",
        "type": "客席飲食施設",
        "lat": 35.308541,
        "lng": 132.883209,
        "url": "test",
        "tell": "0854-45-2127",
        "address": "雲南市三刀屋町古城35-1"
    },
    {
        "name": "布野鮮魚店",
        "type": "客席飲食施設",
        "lat": 35.295304,
        "lng": 132.876802,
        "url": "test",
        "tell": "0854-45-5678",
        "address": "雲南市三刀屋町坂本870"
    },
    {
        "name": "明石ふれあい館",
        "type": "客席飲食施設",
        "lat": 35.252923,
        "lng": 132.851089,
        "url": "test",
        "tell": "0854-45-5900",
        "address": "雲南市三刀屋町三刀屋20"
    },
    {
        "name": "レストラン　みとや川",
        "type": "客席飲食施設",
        "lat": 35.295829,
        "lng": 132.883418,
        "url": "test",
        "tell": "0854-45-5900",
        "address": "雲南市三刀屋町三刀屋20"
    },
    {
        "name": "（有）上代　ホテル上代",
        "type": "客席飲食施設",
        "lat": 35.295829,
        "lng": 132.883418,
        "url": "test",
        "tell": "0854-45-2603",
        "address": "雲南市三刀屋町三刀屋307番地"
    },
    {
        "name": "ながら旅館",
        "type": "客席飲食施設",
        "lat": 35.288516,
        "lng": 132.871664,
        "url": "test",
        "tell": "0854-45-2374",
        "address": "雲南市三刀屋町三刀屋46-2"
    },
    {
        "name": "らあめん市場　麺太鼓",
        "type": "客席飲食施設",
        "lat": 35.298179,
        "lng": 132.887145,
        "url": "test",
        "tell": "0854-45-4980",
        "address": "雲南市三刀屋町三刀屋51-7"
    },
    {
        "name": "日本料理　花ぶさ",
        "type": "客席飲食施設",
        "lat": 35.298084,
        "lng": 132.887834,
        "url": "test",
        "tell": "0854-45-2911",
        "address": "雲南市三刀屋町三刀屋71-1"
    },
    {
        "name": "炉端かば雲南店",
        "type": "客席飲食施設",
        "lat": 35.299659,
        "lng": 132.888417,
        "url": "test",
        "tell": "0854-45-2311",
        "address": "雲南市三刀屋町三刀屋72-2"
    },
    {
        "name": "レストラン旬香",
        "type": "客席飲食施設",
        "lat": 35.30022,
        "lng": 132.88902,
        "url": "test",
        "tell": "0854-45-0233",
        "address": "雲南市三刀屋町三刀屋75-9"
    },
    {
        "name": "ほっかほっか亭三刀屋店",
        "type": "客席飲食施設",
        "lat": 35.300645,
        "lng": 132.890775,
        "url": "test",
        "tell": "0854-43-3711",
        "address": "雲南市大東町下佐世91-2"
    },
    {
        "name": "白虎茶屋",
        "type": "客席飲食施設",
        "lat": 35.31665,
        "lng": 132.944486,
        "url": "test",
        "tell": "0854-43-2458",
        "address": "雲南市大東町須賀295-8"
    },
    {
        "name": "曽田屋",
        "type": "客席飲食施設",
        "lat": 35.352635,
        "lng": 133.03071,
        "url": "test",
        "tell": "0854-43-2238",
        "address": "雲南市大東町大東1008-4"
    },
    {
        "name": "あか川食堂",
        "type": "客席飲食施設",
        "lat": 35.32478,
        "lng": 132.964261,
        "url": "test",
        "tell": "0854-47-7073",
        "address": "雲南市大東町大東1120-3"
    },
    {
        "name": "カフェ　蘭",
        "type": "客席飲食施設",
        "lat": 35.320311,
        "lng": 132.966986,
        "url": "test",
        "tell": "0854-43-2207",
        "address": "雲南市大東町大東1771-4"
    },
    {
        "name": "あすなろ",
        "type": "客席飲食施設",
        "lat": 35.324055,
        "lng": 132.969702,
        "url": "test",
        "tell": "0854-43-2009",
        "address": "雲南市大東町大東1850"
    },
    {
        "name": "村上旅館",
        "type": "客席飲食施設",
        "lat": 35.325047,
        "lng": 132.969558,
        "url": "test",
        "tell": "0854-43-2625",
        "address": "雲南市大東町大東2343-15"
    },
    {
        "name": "陽気寿司",
        "type": "客席飲食施設",
        "lat": 35.323644,
        "lng": 132.968577,
        "url": "test",
        "tell": "0854-43-5243",
        "address": "雲南市大東町大東998-5"
    },
    {
        "name": "居酒屋　めーぷる",
        "type": "客席飲食施設",
        "lat": 35.324327,
        "lng": 132.965672,
        "url": "test",
        "tell": "0854-43-6366",
        "address": "雲南市大東町中湯石248-2"
    },
    {
        "name": "ちぐさ",
        "type": "客席飲食施設",
        "lat": 35.318904,
        "lng": 132.912181,
        "url": "test",
        "tell": "0854-40-0540",
        "address": "雲南市木次町山方1134番地31"
    },
    {
        "name": "道の駅さくらの里きすき",
        "type": "客席飲食施設",
        "lat": 35.288739,
        "lng": 132.930988,
        "url": "test",
        "tell": "0854-42-3480",
        "address": "雲南市木次町寺領2273番地1"
    },
    {
        "name": "有限会社　奥出雲葡萄園",
        "type": "客席飲食施設",
        "lat": 35.288825,
        "lng": 132.898172,
        "url": "test",
        "tell": "0854-42-0213",
        "address": "雲南市木次町新市33"
    },
    {
        "name": "割烹・仕出し　田丸屋",
        "type": "客席飲食施設",
        "lat": 35.27691,
        "lng": 132.90826,
        "url": "test",
        "tell": "0854-42-2623",
        "address": "雲南市木次町西日登2542-2"
    },
    {
        "name": "雲南市　健康の森",
        "type": "客席飲食施設",
        "lat": 35.28274,
        "lng": 132.917042,
        "url": "test",
        "tell": "0854-42-5887",
        "address": "雲南市木次町東日登240-4"
    },
    {
        "name": "＆CAFE　華羅",
        "type": "客席飲食施設",
        "lat": 35.218551,
        "lng": 132.90855,
        "url": "test",
        "tell": "0854-48-0015",
        "address": "雲南市木次町湯村1318-1"
    },
    {
        "name": "森のvillage はぁてぃすと",
        "type": "客席飲食施設",
        "lat": 35.213272,
        "lng": 132.942062,
        "url": "test",
        "tell": "0854-48-0033",
        "address": "雲南市木次町平田472"
    },
    {
        "name": "石照庭園",
        "type": "客席飲食施設",
        "lat": 35.220303,
        "lng": 132.962074,
        "url": "test",
        "tell": "0854-48-9062",
        "address": "雲南市木次町北原1603"
    },
    {
        "name": "道の駅おろちの里",
        "type": "客席飲食施設",
        "lat": 35.293941,
        "lng": 132.901077,
        "url": "test",
        "tell": "0854-42-3304",
        "address": "雲南市木次町木次468"
    }
]