[
    {
        "name": "焼肉酒家さくら亭",
        "type": "客席飲食施設",
        "lat": 35.298534,
        "lng": 132.890481,
        "url": "test"
    },
    {
        "name": "旬菜酒房うさぎ組",
        "type": "客席飲食施設",
        "lat": 35.301451,
        "lng": 132.891847,
        "url": "test"
    },
    {
        "name": "峯寺遊山荘",
        "type": "客席飲食施設",
        "lat": 35.308541,
        "lng": 132.883209,
        "url": "test"
    },
    {
        "name": "布野鮮魚店",
        "type": "客席飲食施設",
        "lat": 35.295304,
        "lng": 132.876802,
        "url": "test"
    },
    {
        "name": "明石ふれあい館",
        "type": "客席飲食施設",
        "lat": 35.252923,
        "lng": 132.851089,
        "url": "test"
    },
    {
        "name": "レストラン　みとや川",
        "type": "客席飲食施設",
        "lat": 35.295829,
        "lng": 132.883418,
        "url": "test"
    },
    {
        "name": "（有）上代　ホテル上代",
        "type": "客席飲食施設",
        "lat": 35.295829,
        "lng": 132.883418,
        "url": "test"
    },
    {
        "name": "ながら旅館",
        "type": "客席飲食施設",
        "lat": 35.288516,
        "lng": 132.871664,
        "url": "test"
    },
    {
        "name": "らあめん市場　麺太鼓",
        "type": "客席飲食施設",
        "lat": 35.298179,
        "lng": 132.887145,
        "url": "test"
    },
    {
        "name": "日本料理　花ぶさ",
        "type": "客席飲食施設",
        "lat": 35.298084,
        "lng": 132.887834,
        "url": "test"
    },
    {
        "name": "炉端かば雲南店",
        "type": "客席飲食施設",
        "lat": 35.299659,
        "lng": 132.888417,
        "url": "test"
    },
    {
        "name": "レストラン旬香",
        "type": "客席飲食施設",
        "lat": 35.30022,
        "lng": 132.88902,
        "url": "test"
    },
    {
        "name": "ほっかほっか亭三刀屋店",
        "type": "客席飲食施設",
        "lat": 35.300645,
        "lng": 132.890775,
        "url": "test"
    },
    {
        "name": "白虎茶屋",
        "type": "客席飲食施設",
        "lat": 35.31665,
        "lng": 132.944486,
        "url": "test"
    },
    {
        "name": "曽田屋",
        "type": "客席飲食施設",
        "lat": 35.352635,
        "lng": 133.03071,
        "url": "test"
    },
    {
        "name": "あか川食堂",
        "type": "客席飲食施設",
        "lat": 35.32478,
        "lng": 132.964261,
        "url": "test"
    },
    {
        "name": "カフェ　蘭",
        "type": "客席飲食施設",
        "lat": 35.320311,
        "lng": 132.966986,
        "url": "test"
    },
    {
        "name": "あすなろ",
        "type": "客席飲食施設",
        "lat": 35.324055,
        "lng": 132.969702,
        "url": "test"
    },
    {
        "name": "村上旅館",
        "type": "客席飲食施設",
        "lat": 35.325047,
        "lng": 132.969558,
        "url": "test"
    },
    {
        "name": "陽気寿司",
        "type": "客席飲食施設",
        "lat": 35.323644,
        "lng": 132.968577,
        "url": "test"
    },
    {
        "name": "居酒屋　めーぷる",
        "type": "客席飲食施設",
        "lat": 35.324327,
        "lng": 132.965672,
        "url": "test"
    },
    {
        "name": "ちぐさ",
        "type": "客席飲食施設",
        "lat": 35.318904,
        "lng": 132.912181,
        "url": "test"
    },
    {
        "name": "道の駅さくらの里きすき",
        "type": "客席飲食施設",
        "lat": 35.288739,
        "lng": 132.930988,
        "url": "test"
    },
    {
        "name": "有限会社　奥出雲葡萄園",
        "type": "客席飲食施設",
        "lat": 35.288825,
        "lng": 132.898172,
        "url": "test"
    },
    {
        "name": "割烹・仕出し　田丸屋",
        "type": "客席飲食施設",
        "lat": 35.27691,
        "lng": 132.90826,
        "url": "test"
    },
    {
        "name": "雲南市　健康の森",
        "type": "客席飲食施設",
        "lat": 35.28274,
        "lng": 132.917042,
        "url": "test"
    },
    {
        "name": "＆CAFE　華羅",
        "type": "客席飲食施設",
        "lat": 35.218551,
        "lng": 132.90855,
        "url": "test"
    },
    {
        "name": "森のvillage はぁてぃすと",
        "type": "客席飲食施設",
        "lat": 35.213272,
        "lng": 132.942062,
        "url": "test"
    },
    {
        "name": "石照庭園",
        "type": "客席飲食施設",
        "lat": 35.220303,
        "lng": 132.962074,
        "url": "test"
    },
    {
        "name": "道の駅おろちの里",
        "type": "客席飲食施設",
        "lat": 35.293941,
        "lng": 132.901077,
        "url": "test"
    }
]